{"type":"FeatureCollection","features":[{"type":"Feature","properties":{"name":"Champoeg Cellars","operator":""},"geometry":{"type":"Point","coordinates":[-122.85203,45.25152]}},{"type":"Feature","properties":{"name":"Carabella Vineyard","operator":""},"geometry":{"type":"Point","coordinates":[-122.84716,45.28939]}},{"type":"Feature","properties":{"name":"Corral Creek Vineyard","operator":""},"geometry":{"type":"Point","coordinates":[-122.91645,45.3118]}},{"type":"Feature","properties":{"name":"Rex Hill","operator":""},"geometry":{"type":"Point","coordinates":[-122.92072,45.31662]}},{"type":"Feature","properties":{"name":"WillaKenzie","operator":""},"geometry":{"type":"Point","coordinates":[-123.13072,45.36126]}},{"type":"Feature","properties":{"name":"WillaKenzie","operator":""},"geometry":{"type":"Point","coordinates":[-123.13303,45.35713]}},{"type":"Feature","properties":{"name":"WillaKenzie","operator":""},"geometry":{"type":"Point","coordinates":[-123.14154,45.3628]}},{"type":"Feature","properties":{"name":"WillaKenzie","operator":""},"geometry":{"type":"Point","coordinates":[-123.13769,45.35816]}},{"type":"Feature","properties":{"name":"Shea Vineyard","operator":""},"geometry":{"type":"Point","coordinates":[-123.11567,45.33666]}},{"type":"Feature","properties":{"name":"Shea Vineyard","operator":""},"geometry":{"type":"Point","coordinates":[-123.10705,45.33165]}},{"type":"Feature","properties":{"name":"J Albin","operator":""},"geometry":{"type":"Point","coordinates":[-123.03469,45.39248]}},{"type":"Feature","properties":{"name":"Evergreen Vineyards","operator":""},"geometry":{"type":"Point","coordinates":[-123.15098,45.20372]}},{"type":"Feature","properties":{"name":"Willamette Valley Vineyards","operator":""},"geometry":{"type":"Point","coordinates":[-123.00888,44.82419]}},{"type":"Feature","properties":{"name":"WillaKenzie","operator":""},"geometry":{"type":"Point","coordinates":[-123.14456,45.36412]}},{"type":"Feature","properties":{"name":"WillaKenzie","operator":""},"geometry":{"type":"Point","coordinates":[-123.13879,45.36536]}},{"type":"Feature","properties":{"name":"Barron-Wahl","operator":""},"geometry":{"type":"Point","coordinates":[-122.84955,45.32334]}},{"type":"Feature","properties":{"name":"Hallcrest Vineyards","operator":""},"geometry":{"type":"Point","coordinates":[-122.07541,37.05203]}},{"type":"Feature","properties":{"name":"David Bruce Winery and Vineyards","operator":""},"geometry":{"type":"Point","coordinates":[-122.04776,37.16889]}},{"type":"Feature","properties":{"name":"J. K. Carriere Wines","operator":""},"geometry":{"type":"Point","coordinates":[-122.87194,45.28724]}},{"type":"Feature","properties":{"name":"Four Gates Winery (organic, Kosher)","operator":""},"geometry":{"type":"Point","coordinates":[-121.97885,37.03256]}},{"type":"Feature","properties":{"name":"Bruzzone Family Vineyards","operator":""},"geometry":{"type":"Point","coordinates":[-122.01735,37.04158]}},{"type":"Feature","properties":{"name":"Black Stallion Winery","operator":""},"geometry":{"type":"Point","coordinates":[-122.29146,38.35938]}},{"type":"Feature","properties":{"name":"Suscol Vineyard","operator":""},"geometry":{"type":"Point","coordinates":[-122.25998,38.24118]}},{"type":"Feature","properties":{"name":"Canard Vineyard","operator":""},"geometry":{"type":"Point","coordinates":[-122.55497,38.57612]}},{"type":"Feature","properties":{"name":"Work Vineyard","operator":""},"geometry":{"type":"Point","coordinates":[-122.60768,38.59481]}},{"type":"Feature","properties":{"name":"Pellet Vineyard","operator":""},"geometry":{"type":"Point","coordinates":[-122.46951,38.49021]}},{"type":"Feature","properties":{"name":"Sullivan Rutherford Estate","operator":""},"geometry":{"type":"Point","coordinates":[-122.42976,38.47711]}},{"type":"Feature","properties":{"name":"Oakville Farmhouse Vineyard","operator":"Bedrock Wine Co."},"geometry":{"type":"Point","coordinates":[-122.412,38.42009]}},{"type":"Feature","properties":{"name":"Campus Vineyard","operator":""},"geometry":{"type":"Point","coordinates":[-122.27305,38.27104]}},{"type":"Feature","properties":{"name":"Saintsbury","operator":""},"geometry":{"type":"Point","coordinates":[-122.32532,38.25036]}},{"type":"Feature","properties":{"name":"O'Brien Estate Winery","operator":""},"geometry":{"type":"Point","coordinates":[-122.3392,38.34592]}},{"type":"Feature","properties":{"name":"Oswego Hills","operator":""},"geometry":{"type":"Point","coordinates":[-122.67663,45.38805]}},{"type":"Feature","properties":{"name":"Gimelli Vineyards","operator":""},"geometry":{"type":"Point","coordinates":[-121.3701,36.72865]}},{"type":"Feature","properties":{"name":"Roudon-Smith Winery","operator":""},"geometry":{"type":"Point","coordinates":[-122.01654,37.07265]}},{"type":"Feature","properties":{"name":"Family Vineyard","operator":""},"geometry":{"type":"Point","coordinates":[-121.40057,36.82202]}},{"type":"Feature","properties":{"name":"Pacific Cellars","operator":""},"geometry":{"type":"Point","coordinates":[-121.92385,37.11698]}},{"type":"Feature","properties":{"name":"Loma Prieta Vineyards","operator":""},"geometry":{"type":"Point","coordinates":[-121.88074,37.10572]}},{"type":"Feature","properties":{"name":"Heart O' The Mountain Vineyard","operator":""},"geometry":{"type":"Point","coordinates":[-121.98519,37.0861]}},{"type":"Feature","properties":{"name":"Branciforte Creek Vineyard","operator":""},"geometry":{"type":"Point","coordinates":[-121.97392,37.07341]}},{"type":"Feature","properties":{"name":"Branciforte Creek Vineyard","operator":""},"geometry":{"type":"Point","coordinates":[-121.97402,37.07443]}},{"type":"Feature","properties":{"name":"Vine Hill Vineyards","operator":""},"geometry":{"type":"Point","coordinates":[-121.96144,37.07159]}},{"type":"Feature","properties":{"name":"Silver Mountain Vineyards","operator":""},"geometry":{"type":"Point","coordinates":[-121.93492,37.10909]}},{"type":"Feature","properties":{"name":"Silver Mountain Vineyards","operator":""},"geometry":{"type":"Point","coordinates":[-121.93449,37.11079]}},{"type":"Feature","properties":{"name":"Silver Mountain Vineyards","operator":""},"geometry":{"type":"Point","coordinates":[-121.93324,37.10985]}},{"type":"Feature","properties":{"name":"Clos De Madrone Vineyards","operator":""},"geometry":{"type":"Point","coordinates":[-121.94144,37.10781]}},{"type":"Feature","properties":{"name":"P M Staiger Vineyard & Winery","operator":""},"geometry":{"type":"Point","coordinates":[-122.10036,37.15018]}},{"type":"Feature","properties":{"name":"P M Staiger Vineyard & Winery","operator":""},"geometry":{"type":"Point","coordinates":[-122.10059,37.15111]}},{"type":"Feature","properties":{"name":"Bailey's Branciforte Ridge Vineyard","operator":""},"geometry":{"type":"Point","coordinates":[-121.98443,37.05528]}},{"type":"Feature","properties":{"name":"Nicholson Vineyards","operator":""},"geometry":{"type":"Point","coordinates":[-121.84394,37.00559]}},{"type":"Feature","properties":{"name":"McHenry Vineyard","operator":""},"geometry":{"type":"Point","coordinates":[-122.15024,37.0665]}},{"type":"Feature","properties":{"name":"Skyland Vineyard","operator":""},"geometry":{"type":"Point","coordinates":[-121.92887,37.10598]}},{"type":"Feature","properties":{"name":"Clos Tita Vineyard","operator":""},"geometry":{"type":"Point","coordinates":[-121.9915,37.05871]}},{"type":"Feature","properties":{"name":"Clos Tita Vineyard","operator":""},"geometry":{"type":"Point","coordinates":[-121.99124,37.05883]}},{"type":"Feature","properties":{"name":"Silvertip Vineyards","operator":""},"geometry":{"type":"Point","coordinates":[-122.0119,37.15575]}},{"type":"Feature","properties":{"name":"Silvertip Vineyards","operator":""},"geometry":{"type":"Point","coordinates":[-122.01318,37.15711]}},{"type":"Feature","properties":{"name":"Silvertip Vineyards","operator":""},"geometry":{"type":"Point","coordinates":[-122.01325,37.15626]}},{"type":"Feature","properties":{"name":"Silvertip Vineyards","operator":""},"geometry":{"type":"Point","coordinates":[-122.01226,37.15723]}},{"type":"Feature","properties":{"name":"Silvertip Vineyards","operator":""},"geometry":{"type":"Point","coordinates":[-122.01387,37.15662]}},{"type":"Feature","properties":{"name":"Silvertip Vineyards","operator":""},"geometry":{"type":"Point","coordinates":[-122.01402,37.15755]}},{"type":"Feature","properties":{"name":"ASV Wines","operator":""},"geometry":{"type":"Point","coordinates":[-121.60478,37.08026]}},{"type":"Feature","properties":{"name":"Golden Vine Vineyard","operator":""},"geometry":{"type":"Point","coordinates":[-117.91967,33.80686]}},{"type":"Feature","properties":{"name":"Darcie Kent Vineyards","operator":""},"geometry":{"type":"Point","coordinates":[-121.70622,37.66557]}},{"type":"Feature","properties":{"name":"Bloomfield Vineyards","operator":""},"geometry":{"type":"Point","coordinates":[-121.62144,37.9451]}},{"type":"Feature","properties":{"name":"Mountain Winery Vineyards","operator":""},"geometry":{"type":"Point","coordinates":[-122.06076,37.25548]}},{"type":"Feature","properties":{"name":"Mount Eden Vineyards","operator":"MEV Corporation"},"geometry":{"type":"Point","coordinates":[-122.07881,37.26539]}},{"type":"Feature","properties":{"name":"Ridge Vineyards","operator":""},"geometry":{"type":"Point","coordinates":[-122.1297,37.30626]}},{"type":"Feature","properties":{"name":"Muns Vineyard","operator":""},"geometry":{"type":"Point","coordinates":[-121.88921,37.10949]}},{"type":"Feature","properties":{"name":"Laetitia Vineyard And Winery","operator":""},"geometry":{"type":"Point","coordinates":[-120.51611,35.0957]}},{"type":"Feature","properties":{"name":"Cobble Creek Vineyard","operator":""},"geometry":{"type":"Point","coordinates":[-120.72193,35.57714]}},{"type":"Feature","properties":{"name":"Graves Winegrowers Inc","operator":""},"geometry":{"type":"Point","coordinates":[-120.45298,35.52429]}},{"type":"Feature","properties":{"name":"Eos Estate Winery","operator":""},"geometry":{"type":"Point","coordinates":[-120.64171,35.64579]}},{"type":"Feature","properties":{"name":"Dusi","operator":""},"geometry":{"type":"Point","coordinates":[-120.73413,35.67189]}},{"type":"Feature","properties":{"name":"Field 4","operator":""},"geometry":{"type":"Point","coordinates":[-120.79686,35.57949]}},{"type":"Feature","properties":{"name":"Paderewski Vineyard","operator":""},"geometry":{"type":"Point","coordinates":[-120.73367,35.61799]}},{"type":"Feature","properties":{"name":"Field 3","operator":""},"geometry":{"type":"Point","coordinates":[-120.79935,35.5818]}},{"type":"Feature","properties":{"name":"Gainey Vineyard","operator":""},"geometry":{"type":"Point","coordinates":[-120.06581,34.60822]}},{"type":"Feature","properties":{"name":"Foley Estates Vineyard & Winery","operator":""},"geometry":{"type":"Point","coordinates":[-120.30013,34.65191]}},{"type":"Feature","properties":{"name":"Fess Parker Winery & Vineyard","operator":""},"geometry":{"type":"Point","coordinates":[-120.11936,34.74229]}},{"type":"Feature","properties":{"name":"Thomas Fogarty Vineyards","operator":""},"geometry":{"type":"Point","coordinates":[-122.22065,37.34316]}},{"type":"Feature","properties":{"name":"Oak Knoll Winery","operator":""},"geometry":{"type":"Point","coordinates":[-122.98343,45.46179]}},{"type":"Feature","properties":{"name":"San Ysidro Vineyards","operator":""},"geometry":{"type":"Point","coordinates":[-121.49921,36.99716]}},{"type":"Feature","properties":{"name":"Silver Mountain Vineyards","operator":""},"geometry":{"type":"Point","coordinates":[-121.93565,37.11067]}},{"type":"Feature","properties":{"name":"Clos de Madrone Vineyards","operator":""},"geometry":{"type":"Point","coordinates":[-121.94207,37.10924]}},{"type":"Feature","properties":{"name":"Fairsing","operator":""},"geometry":{"type":"Point","coordinates":[-123.12376,45.37213]}},{"type":"Feature","properties":{"name":"Drouhin","operator":""},"geometry":{"type":"Point","coordinates":[-123.05181,45.26242]}},{"type":"Feature","properties":{"name":"Gladhart Vineyard","operator":""},"geometry":{"type":"Point","coordinates":[-123.07839,45.25345]}},{"type":"Feature","properties":{"name":"Erath Winery","operator":""},"geometry":{"type":"Point","coordinates":[-123.0634,45.28247]}},{"type":"Feature","properties":{"name":"Radonich Brothers Vineyards","operator":""},"geometry":{"type":"Point","coordinates":[-121.90127,37.10494]}},{"type":"Feature","properties":{"name":"Radonich Brothers Vineyards","operator":""},"geometry":{"type":"Point","coordinates":[-121.90193,37.10489]}},{"type":"Feature","properties":{"name":"Radonich Brothers Vineyards","operator":""},"geometry":{"type":"Point","coordinates":[-121.90275,37.10468]}},{"type":"Feature","properties":{"name":"Chalone Vinyards","operator":""},"geometry":{"type":"Point","coordinates":[-121.22992,36.47017]}},{"type":"Feature","properties":{"name":"Deerfield Organic Merlot","operator":""},"geometry":{"type":"Point","coordinates":[-121.40061,36.27244]}},{"type":"Feature","properties":{"name":"Mesa Vineyard","operator":""},"geometry":{"type":"Point","coordinates":[-120.3589,35.62031]}},{"type":"Feature","properties":{"name":"Castle Coastal Vineyards","operator":""},"geometry":{"type":"Point","coordinates":[-121.31117,36.30675]}},{"type":"Feature","properties":{"name":"Maria's Organic Syrah","operator":""},"geometry":{"type":"Point","coordinates":[-121.39542,36.27126]}},{"type":"Feature","properties":{"name":"Windy Oaks Estate Vineyards","operator":""},"geometry":{"type":"Point","coordinates":[-121.76165,37.01782]}},{"type":"Feature","properties":{"name":"Molly's Vineyard","operator":""},"geometry":{"type":"Point","coordinates":[-122.68654,45.36174]}},{"type":"Feature","properties":{"name":"Henry Estate Winery","operator":""},"geometry":{"type":"Point","coordinates":[-123.47047,43.36601]}},{"type":"Feature","properties":{"name":"Bald Mountain Vineyards","operator":""},"geometry":{"type":"Point","coordinates":[-122.11991,37.01935]}},{"type":"Feature","properties":{"name":"Meyley Vineyard","operator":""},"geometry":{"type":"Point","coordinates":[-122.15441,37.06692]}},{"type":"Feature","properties":{"name":"Pamplin Family Winery","operator":""},"geometry":{"type":"Point","coordinates":[-122.91659,45.33307]}},{"type":"Feature","properties":{"name":"Alberti Vineyards","operator":""},"geometry":{"type":"Point","coordinates":[-121.95807,37.07278]}},{"type":"Feature","properties":{"name":"Vi\u00f1edos Malag\u00f3n","operator":""},"geometry":{"type":"Point","coordinates":[-116.62664,32.08271]}},{"type":"Feature","properties":{"name":"Vin\u00edcola Adobe Guadalupe","operator":""},"geometry":{"type":"Point","coordinates":[-116.62472,32.08723]}},{"type":"Feature","properties":{"name":"Vin\u00edcola Emeve","operator":""},"geometry":{"type":"Point","coordinates":[-116.63242,32.08918]}},{"type":"Feature","properties":{"name":"Las Nubes","operator":""},"geometry":{"type":"Point","coordinates":[-116.65223,32.07939]}},{"type":"Feature","properties":{"name":"Vinos Bibayoff","operator":""},"geometry":{"type":"Point","coordinates":[-116.66094,32.05279]}},{"type":"Feature","properties":{"name":"Pedro Domeq","operator":""},"geometry":{"type":"Point","coordinates":[-116.54036,32.12239]}},{"type":"Feature","properties":{"name":"Pedro Domeq","operator":""},"geometry":{"type":"Point","coordinates":[-116.53926,32.12659]}},{"type":"Feature","properties":{"name":"L.A. Cetto","operator":""},"geometry":{"type":"Point","coordinates":[-116.52667,32.1183]}},{"type":"Feature","properties":{"name":"Field 2","operator":""},"geometry":{"type":"Point","coordinates":[-120.79491,35.58179]}},{"type":"Feature","properties":{"name":"Field 1","operator":""},"geometry":{"type":"Point","coordinates":[-120.79769,35.58297]}},{"type":"Feature","properties":{"name":"Creston Vineyard","operator":""},"geometry":{"type":"Point","coordinates":[-120.38918,35.45648]}},{"type":"Feature","properties":{"name":"Tres Sabores","operator":""},"geometry":{"type":"Point","coordinates":[-122.44404,38.46265]}},{"type":"Feature","properties":{"name":"Davis","operator":""},"geometry":{"type":"Point","coordinates":[-120.73014,35.67184]}},{"type":"Feature","properties":{"name":"Divino Estate Winery","operator":""},"geometry":{"type":"Point","coordinates":[-123.60474,48.70831]}},{"type":"Feature","properties":{"name":"Cherry Point Estate Wines","operator":""},"geometry":{"type":"Point","coordinates":[-123.56513,48.71449]}},{"type":"Feature","properties":{"name":"Deol - Estate Vineyard","operator":""},"geometry":{"type":"Point","coordinates":[-123.73208,48.81131]}},{"type":"Feature","properties":{"name":"Glenterra Vineyards","operator":""},"geometry":{"type":"Point","coordinates":[-123.60517,48.70322]}},{"type":"Feature","properties":{"name":"Rocky Creek Winery","operator":""},"geometry":{"type":"Point","coordinates":[-123.62982,48.72454]}},{"type":"Feature","properties":{"name":"Silverside Farm & Winery","operator":""},"geometry":{"type":"Point","coordinates":[-123.61095,48.70006]}},{"type":"Feature","properties":{"name":"Unsworth - Estate Vineyard","operator":"Unsworth Vineyards"},"geometry":{"type":"Point","coordinates":[-123.58529,48.65984]}},{"type":"Feature","properties":{"name":"Venturi-Schulze Vineyards","operator":""},"geometry":{"type":"Point","coordinates":[-123.61857,48.72095]}},{"type":"Feature","properties":{"name":"GGF6","operator":"Vineyard"},"geometry":{"type":"Point","coordinates":[-120.59617,35.19844]}},{"type":"Feature","properties":{"name":"Church and State Wines","operator":""},"geometry":{"type":"Point","coordinates":[-123.44082,48.5629]}},{"type":"Feature","properties":{"name":"Symphony Vineyard","operator":""},"geometry":{"type":"Point","coordinates":[-123.41464,48.55642]}},{"type":"Feature","properties":{"name":"de Vine Vineyards","operator":""},"geometry":{"type":"Point","coordinates":[-123.42904,48.5524]}},{"type":"Feature","properties":{"name":"Salt Spring Vineyards","operator":""},"geometry":{"type":"Point","coordinates":[-123.49426,48.79573]}},{"type":"Feature","properties":{"name":"Braden Heights","operator":""},"geometry":{"type":"Point","coordinates":[-118.34189,46.00467]}},{"type":"Feature","properties":{"name":"Los Oidos","operator":""},"geometry":{"type":"Point","coordinates":[-118.30761,46.02356]}},{"type":"Feature","properties":{"name":"Vista Montana","operator":""},"geometry":{"type":"Point","coordinates":[-118.31023,46.025]}},{"type":"Feature","properties":{"name":"Vista Montana","operator":""},"geometry":{"type":"Point","coordinates":[-118.31092,46.02404]}},{"type":"Feature","properties":{"name":"Goff Vineyard","operator":""},"geometry":{"type":"Point","coordinates":[-118.36704,46.00727]}},{"type":"Feature","properties":{"name":"Pepper Bridge","operator":""},"geometry":{"type":"Point","coordinates":[-118.37059,46.01129]}},{"type":"Feature","properties":{"name":"Pepper Bridge","operator":""},"geometry":{"type":"Point","coordinates":[-118.37276,46.01123]}},{"type":"Feature","properties":{"name":"Sconni Block Vineyard","operator":""},"geometry":{"type":"Point","coordinates":[-118.34202,46.01118]}},{"type":"Feature","properties":{"name":"Forgotten Hills Vineyard","operator":""},"geometry":{"type":"Point","coordinates":[-118.32607,46.02326]}},{"type":"Feature","properties":{"name":"J.K.M. Vineyard","operator":""},"geometry":{"type":"Point","coordinates":[-118.3245,46.02373]}},{"type":"Feature","properties":{"name":"Moonlight Drive","operator":""},"geometry":{"type":"Point","coordinates":[-118.23975,46.08737]}},{"type":"Feature","properties":{"name":"Tokar Vineyard","operator":""},"geometry":{"type":"Point","coordinates":[-118.1922,46.08508]}},{"type":"Feature","properties":{"name":"Nocking Point","operator":""},"geometry":{"type":"Point","coordinates":[-118.57787,46.05741]}},{"type":"Feature","properties":{"name":"McB Vineyard","operator":"Foundry Vineyards"},"geometry":{"type":"Point","coordinates":[-118.57729,46.05861]}},{"type":"Feature","properties":{"name":"Anna Marie","operator":""},"geometry":{"type":"Point","coordinates":[-118.44297,45.94666]}},{"type":"Feature","properties":{"name":"Dugger Creek","operator":""},"geometry":{"type":"Point","coordinates":[-118.46815,45.95743]}},{"type":"Feature","properties":{"name":"Patina Vineyard","operator":""},"geometry":{"type":"Point","coordinates":[-118.32279,46.01954]}},{"type":"Feature","properties":{"name":"Waliser Winery","operator":""},"geometry":{"type":"Point","coordinates":[-118.40586,45.94618]}},{"type":"Feature","properties":{"name":"Eidolon Vineyard","operator":""},"geometry":{"type":"Point","coordinates":[-118.40606,45.95026]}},{"type":"Feature","properties":{"name":"Dave Beebe Vineyards","operator":""},"geometry":{"type":"Point","coordinates":[-118.32302,46.02925]}},{"type":"Feature","properties":{"name":"Gateshead Vineyards","operator":""},"geometry":{"type":"Point","coordinates":[-118.35369,46.01365]}},{"type":"Feature","properties":{"name":"Larry's Vineyard","operator":""},"geometry":{"type":"Point","coordinates":[-118.41406,45.96418]}},{"type":"Feature","properties":{"name":"Foothills Vineyard","operator":""},"geometry":{"type":"Point","coordinates":[-118.3399,45.97762]}},{"type":"Feature","properties":{"name":"Monette's Vineyard","operator":""},"geometry":{"type":"Point","coordinates":[-118.3834,45.9523]}},{"type":"Feature","properties":{"name":"Funk Estate Vineyard","operator":""},"geometry":{"type":"Point","coordinates":[-118.4096,45.94622]}},{"type":"Feature","properties":{"name":"Davidson Vineyard","operator":""},"geometry":{"type":"Point","coordinates":[-118.34293,46.00828]}},{"type":"Feature","properties":{"name":"El Cielo","operator":""},"geometry":{"type":"Point","coordinates":[-116.64701,32.06381]}},{"type":"Feature","properties":{"name":"Baron Balche","operator":""},"geometry":{"type":"Point","coordinates":[-116.63366,32.09896]}},{"type":"Feature","properties":{"name":"Figgins Estate","operator":""},"geometry":{"type":"Point","coordinates":[-118.18697,46.08581]}},{"type":"Feature","properties":{"name":"Menozzi Estate","operator":""},"geometry":{"type":"Point","coordinates":[-118.19063,46.08481]}},{"type":"Feature","properties":{"name":"Kenny Hill","operator":""},"geometry":{"type":"Point","coordinates":[-118.20786,46.09024]}},{"type":"Feature","properties":{"name":"Yellow Bird","operator":""},"geometry":{"type":"Point","coordinates":[-118.20399,46.09149]}},{"type":"Feature","properties":{"name":"Mill Creek Upland Vineyard","operator":""},"geometry":{"type":"Point","coordinates":[-118.20139,46.0915]}},{"type":"Feature","properties":{"name":"aMaurice Cellars Estate Vineyard","operator":""},"geometry":{"type":"Point","coordinates":[-118.2012,46.08808]}},{"type":"Feature","properties":{"name":"Walla Walla Vintners Estate Vineyard","operator":""},"geometry":{"type":"Point","coordinates":[-118.20401,46.08836]}},{"type":"Feature","properties":{"name":"Spring Valley","operator":""},"geometry":{"type":"Point","coordinates":[-118.2096,46.16232]}},{"type":"Feature","properties":{"name":"Spring Valley","operator":""},"geometry":{"type":"Point","coordinates":[-118.20741,46.16975]}},{"type":"Feature","properties":{"name":"Spring Valley","operator":""},"geometry":{"type":"Point","coordinates":[-118.2041,46.17688]}},{"type":"Feature","properties":{"name":"Spring Valley","operator":""},"geometry":{"type":"Point","coordinates":[-118.20119,46.17644]}},{"type":"Feature","properties":{"name":"Waterbrook Estate Vineyard","operator":""},"geometry":{"type":"Point","coordinates":[-118.19554,46.17598]}},{"type":"Feature","properties":{"name":"Waterbrook Estate Vineyard","operator":""},"geometry":{"type":"Point","coordinates":[-118.19181,46.17676]}},{"type":"Feature","properties":{"name":"Waterbrook Estate Vineyard","operator":""},"geometry":{"type":"Point","coordinates":[-118.19481,46.16782]}},{"type":"Feature","properties":{"name":"College Cellars - Stan Clarke Vineyard","operator":""},"geometry":{"type":"Point","coordinates":[-118.2705,46.08799]}},{"type":"Feature","properties":{"name":"K Vintners Estate Vineyard","operator":""},"geometry":{"type":"Point","coordinates":[-118.25044,46.0856]}},{"type":"Feature","properties":{"name":"Abeja Estate Vineyard","operator":""},"geometry":{"type":"Point","coordinates":[-118.22765,46.08794]}},{"type":"Feature","properties":{"name":"Blue Mountain Vineyard","operator":""},"geometry":{"type":"Point","coordinates":[-118.28173,46.06008]}},{"type":"Feature","properties":{"name":"Loess Vineyard","operator":""},"geometry":{"type":"Point","coordinates":[-118.29102,46.05488]}},{"type":"Feature","properties":{"name":"Leonetti Estate Vineyard","operator":""},"geometry":{"type":"Point","coordinates":[-118.29452,46.05707]}},{"type":"Feature","properties":{"name":"Leonetti Estate Vineyard","operator":""},"geometry":{"type":"Point","coordinates":[-118.29615,46.05622]}},{"type":"Feature","properties":{"name":"Leonetti Estate Vineyard","operator":""},"geometry":{"type":"Point","coordinates":[-118.29725,46.05733]}},{"type":"Feature","properties":{"name":"Stonemarker Vineyard","operator":""},"geometry":{"type":"Point","coordinates":[-118.31228,46.04071]}},{"type":"Feature","properties":{"name":"Les Collines","operator":""},"geometry":{"type":"Point","coordinates":[-118.27442,46.00379]}},{"type":"Feature","properties":{"name":"Breezy Slope Vineyard","operator":""},"geometry":{"type":"Point","coordinates":[-118.22951,45.98949]}},{"type":"Feature","properties":{"name":"Morrison Lane Estate Vineyard","operator":""},"geometry":{"type":"Point","coordinates":[-118.31916,46.02032]}},{"type":"Feature","properties":{"name":"Orchard Vineyard","operator":""},"geometry":{"type":"Point","coordinates":[-118.31616,46.01007]}},{"type":"Feature","properties":{"name":"The Dwelley","operator":""},"geometry":{"type":"Point","coordinates":[-118.25902,46.05666]}},{"type":"Feature","properties":{"name":"The Dwelley","operator":""},"geometry":{"type":"Point","coordinates":[-118.25297,46.05376]}},{"type":"Feature","properties":{"name":"Fjellene Estate Vineyard","operator":""},"geometry":{"type":"Point","coordinates":[-118.34485,46.01102]}},{"type":"Feature","properties":{"name":"Francisca's Vineyard","operator":""},"geometry":{"type":"Point","coordinates":[-118.3423,46.00618]}},{"type":"Feature","properties":{"name":"GH - 1","operator":""},"geometry":{"type":"Point","coordinates":[-118.34497,46.0017]}},{"type":"Feature","properties":{"name":"Whistling Hills","operator":""},"geometry":{"type":"Point","coordinates":[-118.36012,46.01401]}},{"type":"Feature","properties":{"name":"J&S Vineyard","operator":""},"geometry":{"type":"Point","coordinates":[-118.35773,46.01396]}},{"type":"Feature","properties":{"name":"Northstar Estate Vineyard","operator":""},"geometry":{"type":"Point","coordinates":[-118.36509,46.01137]}},{"type":"Feature","properties":{"name":"Eleanor's Vineyard","operator":""},"geometry":{"type":"Point","coordinates":[-118.363,46.00958]}},{"type":"Feature","properties":{"name":"Girosol","operator":""},"geometry":{"type":"Point","coordinates":[-118.36568,46.00969]}},{"type":"Feature","properties":{"name":"Pellet Estate Vineyard","operator":""},"geometry":{"type":"Point","coordinates":[-118.3668,46.00848]}},{"type":"Feature","properties":{"name":"Marie Glen","operator":""},"geometry":{"type":"Point","coordinates":[-118.36247,46.00597]}},{"type":"Feature","properties":{"name":"Pheasant Run","operator":""},"geometry":{"type":"Point","coordinates":[-118.36517,46.0044]}},{"type":"Feature","properties":{"name":"Aria","operator":""},"geometry":{"type":"Point","coordinates":[-118.36186,46.00446]}},{"type":"Feature","properties":{"name":"Southside","operator":""},"geometry":{"type":"Point","coordinates":[-118.37522,46.00422]}},{"type":"Feature","properties":{"name":"Saviah Cellars Estate Vineyard","operator":""},"geometry":{"type":"Point","coordinates":[-118.38196,46.0051]}},{"type":"Feature","properties":{"name":"Pepper Bridge","operator":""},"geometry":{"type":"Point","coordinates":[-118.37876,46.0092]}},{"type":"Feature","properties":{"name":"Pepper Bridge","operator":""},"geometry":{"type":"Point","coordinates":[-118.36917,46.01244]}},{"type":"Feature","properties":{"name":"Pepper Bridge","operator":""},"geometry":{"type":"Point","coordinates":[-118.37884,46.01957]}},{"type":"Feature","properties":{"name":"Double River Vineyard","operator":""},"geometry":{"type":"Point","coordinates":[-118.39272,46.01769]}},{"type":"Feature","properties":{"name":"GH - 2","operator":""},"geometry":{"type":"Point","coordinates":[-118.36872,46.00423]}},{"type":"Feature","properties":{"name":"Va Piano Estate Vineyard","operator":""},"geometry":{"type":"Point","coordinates":[-118.37099,46.00416]}},{"type":"Feature","properties":{"name":"Castillo de Feliciano Vineyard","operator":""},"geometry":{"type":"Point","coordinates":[-118.36889,46.00006]}},{"type":"Feature","properties":{"name":"Foothills Vineyard","operator":""},"geometry":{"type":"Point","coordinates":[-118.33765,45.98432]}},{"type":"Feature","properties":{"name":"Cali Vineyard","operator":""},"geometry":{"type":"Point","coordinates":[-118.35014,45.9606]}},{"type":"Feature","properties":{"name":"Birch Creek Vineyard","operator":""},"geometry":{"type":"Point","coordinates":[-118.36415,45.97137]}},{"type":"Feature","properties":{"name":"Nostra Terra Vineyard","operator":""},"geometry":{"type":"Point","coordinates":[-118.36847,45.97036]}},{"type":"Feature","properties":{"name":"Cockburn Ranch","operator":""},"geometry":{"type":"Point","coordinates":[-118.33038,45.93172]}},{"type":"Feature","properties":{"name":"Sunnyside Vineyard","operator":""},"geometry":{"type":"Point","coordinates":[-118.39444,45.9631]}},{"type":"Feature","properties":{"name":"Old Stones","operator":""},"geometry":{"type":"Point","coordinates":[-118.39753,45.9666]}},{"type":"Feature","properties":{"name":"Noble Rock","operator":""},"geometry":{"type":"Point","coordinates":[-118.40199,45.97027]}},{"type":"Feature","properties":{"name":"Watermill Winery Estate Vineyard","operator":""},"geometry":{"type":"Point","coordinates":[-118.422,45.96029]}},{"type":"Feature","properties":{"name":"Stoney Vine Vineyard","operator":""},"geometry":{"type":"Point","coordinates":[-118.43266,45.96006]}},{"type":"Feature","properties":{"name":"Stellar Vineyard","operator":""},"geometry":{"type":"Point","coordinates":[-118.44538,45.95999]}},{"type":"Feature","properties":{"name":"Rock Bottom Vineyard","operator":""},"geometry":{"type":"Point","coordinates":[-118.45241,45.96291]}},{"type":"Feature","properties":{"name":"Riviere Galets","operator":""},"geometry":{"type":"Point","coordinates":[-118.4541,45.95655]}},{"type":"Feature","properties":{"name":"Cougar Hills","operator":""},"geometry":{"type":"Point","coordinates":[-118.46221,45.95636]}},{"type":"Feature","properties":{"name":"McClelland Estate Vineyard","operator":""},"geometry":{"type":"Point","coordinates":[-118.46332,45.95253]}},{"type":"Feature","properties":{"name":"Windrow Vineyard","operator":""},"geometry":{"type":"Point","coordinates":[-118.46327,45.94908]}},{"type":"Feature","properties":{"name":"Seven Hills West","operator":""},"geometry":{"type":"Point","coordinates":[-118.45165,45.95241]}},{"type":"Feature","properties":{"name":"Seven Hills West","operator":""},"geometry":{"type":"Point","coordinates":[-118.45823,45.94964]}},{"type":"Feature","properties":{"name":"Seven Hills","operator":""},"geometry":{"type":"Point","coordinates":[-118.44923,45.94493]}},{"type":"Feature","properties":{"name":"Summit View","operator":""},"geometry":{"type":"Point","coordinates":[-118.44016,45.93686]}},{"type":"Feature","properties":{"name":"Margaret's Vineyard","operator":""},"geometry":{"type":"Point","coordinates":[-118.43698,45.93139]}},{"type":"Feature","properties":{"name":"Ferguson Vineyard","operator":""},"geometry":{"type":"Point","coordinates":[-118.43476,45.92838]}},{"type":"Feature","properties":{"name":"Bob Healy Vineyard","operator":""},"geometry":{"type":"Point","coordinates":[-118.4331,45.93109]}},{"type":"Feature","properties":{"name":"Southwind","operator":""},"geometry":{"type":"Point","coordinates":[-118.42798,45.93392]}},{"type":"Feature","properties":{"name":"Southwind","operator":""},"geometry":{"type":"Point","coordinates":[-118.41627,45.9269]}},{"type":"Feature","properties":{"name":"Southwind","operator":""},"geometry":{"type":"Point","coordinates":[-118.42127,45.93134]}},{"type":"Feature","properties":{"name":"Anna Marie","operator":""},"geometry":{"type":"Point","coordinates":[-118.43117,45.94082]}},{"type":"Feature","properties":{"name":"Heather Hill","operator":""},"geometry":{"type":"Point","coordinates":[-118.42647,45.94175]}},{"type":"Feature","properties":{"name":"XL Vineyard","operator":""},"geometry":{"type":"Point","coordinates":[-118.46248,45.9346]}},{"type":"Feature","properties":{"name":"Serra Pedace","operator":""},"geometry":{"type":"Point","coordinates":[-118.46077,45.93091]}},{"type":"Feature","properties":{"name":"Serra Pedace","operator":""},"geometry":{"type":"Point","coordinates":[-118.45729,45.92612]}},{"type":"Feature","properties":{"name":"Octave VIneyard","operator":""},"geometry":{"type":"Point","coordinates":[-118.46462,45.93031]}},{"type":"Feature","properties":{"name":"McQueen Vineyard","operator":""},"geometry":{"type":"Point","coordinates":[-118.46819,45.93108]}},{"type":"Feature","properties":{"name":"McQueen Vineyard","operator":""},"geometry":{"type":"Point","coordinates":[-118.4688,45.92822]}},{"type":"Feature","properties":{"name":"Siren Song","operator":""},"geometry":{"type":"Point","coordinates":[-118.45641,45.93349]}},{"type":"Feature","properties":{"name":"Don Carlo Vineyard","operator":""},"geometry":{"type":"Point","coordinates":[-118.42654,45.95212]}},{"type":"Feature","properties":{"name":"Eidolon Vineyard","operator":""},"geometry":{"type":"Point","coordinates":[-118.41146,45.94939]}},{"type":"Feature","properties":{"name":"Winesap Vineyards","operator":""},"geometry":{"type":"Point","coordinates":[-118.41067,45.94842]}},{"type":"Feature","properties":{"name":"Rockgarden Estate","operator":""},"geometry":{"type":"Point","coordinates":[-118.40948,45.95033]}},{"type":"Feature","properties":{"name":"Cougar Crest Vineyard","operator":""},"geometry":{"type":"Point","coordinates":[-118.39039,45.94323]}},{"type":"Feature","properties":{"name":"Alderbanks Vineyard","operator":""},"geometry":{"type":"Point","coordinates":[-118.3713,45.89417]}},{"type":"Feature","properties":{"name":"Mission Hills Vineyard","operator":""},"geometry":{"type":"Point","coordinates":[-118.43785,46.0351]}},{"type":"Feature","properties":{"name":"Three Rivers Estate Vineyard","operator":""},"geometry":{"type":"Point","coordinates":[-118.45735,46.05137]}},{"type":"Feature","properties":{"name":"Woodward Canyon Estate Vineyard","operator":""},"geometry":{"type":"Point","coordinates":[-118.58968,46.09696]}},{"type":"Feature","properties":{"name":"Bergevin Springs Vineyard","operator":""},"geometry":{"type":"Point","coordinates":[-118.34778,46.1378]}},{"type":"Feature","properties":{"name":"Bergevin Springs Vineyard","operator":""},"geometry":{"type":"Point","coordinates":[-118.35245,46.13735]}},{"type":"Feature","properties":{"name":"Del Rio Vineyards","operator":""},"geometry":{"type":"Point","coordinates":[-123.09265,42.43732]}},{"type":"Feature","properties":{"name":"Research and Teaching Vineyard","operator":""},"geometry":{"type":"Point","coordinates":[-119.27005,46.32968]}},{"type":"Feature","properties":{"name":"English Estate Winery","operator":""},"geometry":{"type":"Point","coordinates":[-122.48991,45.62213]}},{"type":"Feature","properties":{"name":"Ahlgren Vineyard","operator":""},"geometry":{"type":"Point","coordinates":[-122.14325,37.21448]}},{"type":"Feature","properties":{"name":"Kelley Farm Vineyards","operator":""},"geometry":{"type":"Point","coordinates":[-122.16351,47.17817]}},{"type":"Feature","properties":{"name":"Beauregard Ranch","operator":"Beauregard Vineyards"},"geometry":{"type":"Point","coordinates":[-122.1478,37.06487]}},{"type":"Feature","properties":{"name":"Coast Grade Vineyards","operator":""},"geometry":{"type":"Point","coordinates":[-122.15048,37.03842]}},{"type":"Feature","properties":{"name":"Domani Vineyards","operator":""},"geometry":{"type":"Point","coordinates":[-121.91439,37.1149]}},{"type":"Feature","properties":{"name":"Hunter Hill Vineyards","operator":""},"geometry":{"type":"Point","coordinates":[-121.93559,37.02302]}},{"type":"Feature","properties":{"name":"Soquel Vineyards","operator":""},"geometry":{"type":"Point","coordinates":[-121.9332,37.02963]}},{"type":"Feature","properties":{"name":"Soquel Vineyards","operator":""},"geometry":{"type":"Point","coordinates":[-121.93401,37.02913]}},{"type":"Feature","properties":{"name":"Alfaro Vineyards","operator":""},"geometry":{"type":"Point","coordinates":[-121.82248,36.99307]}},{"type":"Feature","properties":{"name":"Alfaro Vineyards","operator":""},"geometry":{"type":"Point","coordinates":[-121.82227,36.99358]}},{"type":"Feature","properties":{"name":"Alfaro Vineyards","operator":""},"geometry":{"type":"Point","coordinates":[-121.82271,36.99403]}},{"type":"Feature","properties":{"name":"Alfaro Vineyards","operator":""},"geometry":{"type":"Point","coordinates":[-121.82305,36.99511]}},{"type":"Feature","properties":{"name":"Alfaro Vineyards","operator":""},"geometry":{"type":"Point","coordinates":[-121.82131,36.99299]}},{"type":"Feature","properties":{"name":"Dancing Creek Vineyards","operator":""},"geometry":{"type":"Point","coordinates":[-121.9928,37.03317]}},{"type":"Feature","properties":{"name":"Mahonia Nursery and Vineyard","operator":""},"geometry":{"type":"Point","coordinates":[-123.00893,44.87346]}},{"type":"Feature","properties":{"name":"Anselmo Vineyards","operator":""},"geometry":{"type":"Point","coordinates":[-121.98153,40.51209]}},{"type":"Feature","properties":{"name":"Westport Winery","operator":""},"geometry":{"type":"Point","coordinates":[-123.97322,46.91561]}},{"type":"Feature","properties":{"name":"DANCIN Vineyards","operator":""},"geometry":{"type":"Point","coordinates":[-122.94827,42.3037]}},{"type":"Feature","properties":{"name":"Elina Vineyard","operator":""},"geometry":{"type":"Point","coordinates":[-122.67046,42.20962]}},{"type":"Feature","properties":{"name":"Gleitsmann Vineyard","operator":""},"geometry":{"type":"Point","coordinates":[-122.66582,42.20811]}},{"type":"Feature","properties":{"name":"Pompadour Vineyard","operator":""},"geometry":{"type":"Point","coordinates":[-122.66756,42.20649]}},{"type":"Feature","properties":{"name":"Byington Vineyards","operator":""},"geometry":{"type":"Point","coordinates":[-122.05609,37.1699]}},{"type":"Feature","properties":{"name":"Byington Vineyards","operator":""},"geometry":{"type":"Point","coordinates":[-122.05419,37.17042]}},{"type":"Feature","properties":{"name":"Byington Vineyards","operator":""},"geometry":{"type":"Point","coordinates":[-122.05345,37.1695]}},{"type":"Feature","properties":{"name":"Churchill Vineyards","operator":""},"geometry":{"type":"Point","coordinates":[-118.76077,39.36979]}},{"type":"Feature","properties":{"name":"Churchill Vineyards","operator":""},"geometry":{"type":"Point","coordinates":[-118.76013,39.36812]}},{"type":"Feature","properties":{"name":"Snow","operator":""},"geometry":{"type":"Point","coordinates":[-120.73462,35.67164]}},{"type":"Feature","properties":{"name":"Eucalyptus","operator":""},"geometry":{"type":"Point","coordinates":[-120.73854,35.67237]}},{"type":"Feature","properties":{"name":"LaVelle Vineyards","operator":"LaVelle Vineyards"},"geometry":{"type":"Point","coordinates":[-123.36825,44.09332]}},{"type":"Feature","properties":{"name":"Pahrump Valley Winery","operator":""},"geometry":{"type":"Point","coordinates":[-115.94458,36.19116]}},{"type":"Feature","properties":{"name":"Regale Vineyards","operator":""},"geometry":{"type":"Point","coordinates":[-121.93371,37.12152]}},{"type":"Feature","properties":{"name":"Burrell School Vineyards","operator":""},"geometry":{"type":"Point","coordinates":[-121.93263,37.12082]}},{"type":"Feature","properties":{"name":"Kings Raven Winery","operator":""},"geometry":{"type":"Point","coordinates":[-122.62681,45.29668]}},{"type":"Feature","properties":{"name":"Vi\u00f1as de Garza","operator":""},"geometry":{"type":"Point","coordinates":[-116.61405,32.02834]}},{"type":"Feature","properties":{"name":"Irvine & Roberts Vineyards","operator":""},"geometry":{"type":"Point","coordinates":[-122.63285,42.17788]}},{"type":"Feature","properties":{"name":"Taray Residencial","operator":""},"geometry":{"type":"Point","coordinates":[-116.63419,32.06194]}},{"type":"Feature","properties":{"name":"Villa Catalana Cellars","operator":""},"geometry":{"type":"Point","coordinates":[-122.62414,45.30066]}},{"type":"Feature","properties":{"name":"Calamity Hill","operator":""},"geometry":{"type":"Point","coordinates":[-123.13796,45.13403]}},{"type":"Feature","properties":{"name":"Keeler Estate","operator":""},"geometry":{"type":"Point","coordinates":[-123.17961,45.12054]}},{"type":"Feature","properties":{"name":"Antica Terra","operator":""},"geometry":{"type":"Point","coordinates":[-123.17444,45.11686]}},{"type":"Feature","properties":{"name":"Premier Pacific","operator":""},"geometry":{"type":"Point","coordinates":[-123.16857,45.12042]}},{"type":"Feature","properties":{"name":"Domain Coteau Dubay","operator":""},"geometry":{"type":"Point","coordinates":[-123.14586,45.12767]}},{"type":"Feature","properties":{"name":"Dukes Family","operator":""},"geometry":{"type":"Point","coordinates":[-123.15555,45.11923]}},{"type":"Feature","properties":{"name":"Maysara Winery","operator":""},"geometry":{"type":"Point","coordinates":[-123.30218,45.15069]}},{"type":"Feature","properties":{"name":"Yamhill Valley Vineyards","operator":""},"geometry":{"type":"Point","coordinates":[-123.28777,45.15118]}},{"type":"Feature","properties":{"name":"Hauer of the Dauen Winery","operator":""},"geometry":{"type":"Point","coordinates":[-123.09577,45.135]}},{"type":"Feature","properties":{"name":"Maysara Winery","operator":""},"geometry":{"type":"Point","coordinates":[-123.30847,45.15325]}},{"type":"Feature","properties":{"name":"Roserock Vineyard","operator":"Domaine Drouhin Oregon"},"geometry":{"type":"Point","coordinates":[-123.11346,44.97857]}},{"type":"Feature","properties":{"name":"Groodrich Vineyard","operator":""},"geometry":{"type":"Point","coordinates":[-123.17312,45.36681]}},{"type":"Feature","properties":{"name":"Elk Cove Mt. Richmond Vineyard","operator":""},"geometry":{"type":"Point","coordinates":[-123.21823,45.37448]}},{"type":"Feature","properties":{"name":"Elk Cove Mt. Richmond Vineyard","operator":""},"geometry":{"type":"Point","coordinates":[-123.22006,45.37178]}},{"type":"Feature","properties":{"name":"Elk Cove Mt. Richmond Vineyard","operator":""},"geometry":{"type":"Point","coordinates":[-123.21398,45.37228]}},{"type":"Feature","properties":{"name":"Elk Cove Mt. Richmond Vineyard","operator":""},"geometry":{"type":"Point","coordinates":[-123.2152,45.37167]}},{"type":"Feature","properties":{"name":"Elk Cove Mt. Richmond Vineyard","operator":""},"geometry":{"type":"Point","coordinates":[-123.22039,45.37515]}},{"type":"Feature","properties":{"name":"Elk Cove Mt. Richmond Vineyard","operator":""},"geometry":{"type":"Point","coordinates":[-123.21644,45.37576]}},{"type":"Feature","properties":{"name":"Elk Cove Mt. Richmond Vineyard","operator":""},"geometry":{"type":"Point","coordinates":[-123.21647,45.37368]}},{"type":"Feature","properties":{"name":"Groodrich Vineyard","operator":""},"geometry":{"type":"Point","coordinates":[-123.17357,45.36903]}},{"type":"Feature","properties":{"name":"Experimental Vineyard","operator":"Elk Cove Vineyards"},"geometry":{"type":"Point","coordinates":[-123.18386,45.41683]}},{"type":"Feature","properties":{"name":"Las Vinas Winery Inc","operator":"John A. Cotta"},"geometry":{"type":"Point","coordinates":[-121.38405,38.16875]}},{"type":"Feature","properties":{"name":"Campos Family Vineyards","operator":""},"geometry":{"type":"Point","coordinates":[-121.62967,37.87655]}},{"type":"Feature","properties":{"name":"Hollywood Classic Vineyard","operator":""},"geometry":{"type":"Point","coordinates":[-118.32921,34.13119]}},{"type":"Feature","properties":{"name":"Mid 40","operator":"J Rochioli Vineyards & Winery"},"geometry":{"type":"Point","coordinates":[-122.86518,38.53393]}},{"type":"Feature","properties":{"name":"Mid 40","operator":"J Rochioli Vineyards & Winery"},"geometry":{"type":"Point","coordinates":[-122.86504,38.53518]}},{"type":"Feature","properties":{"name":"Old Vine Selection - Little Hill","operator":"J Rochioli Vineyards & Winery"},"geometry":{"type":"Point","coordinates":[-122.86742,38.53235]}},{"type":"Feature","properties":{"name":"Old Vine - Mid 40","operator":"J Rochioli Vineyards & Winery"},"geometry":{"type":"Point","coordinates":[-122.86536,38.53222]}},{"type":"Feature","properties":{"name":"West Block Selection - Sweetwater Vineyard","operator":"J Rochioli Vineyards & Winery"},"geometry":{"type":"Point","coordinates":[-122.87625,38.53356]}},{"type":"Feature","properties":{"name":"West Block Selection - Sweetwater Vineyard","operator":"J Rochioli Vineyards & Winery"},"geometry":{"type":"Point","coordinates":[-122.8751,38.53357]}},{"type":"Feature","properties":{"name":"Calera Selection - Sweetwater Vineyard","operator":"J Rochioli Vineyards & Winery"},"geometry":{"type":"Point","coordinates":[-122.87434,38.53312]}},{"type":"Feature","properties":{"name":"Sweetwater Vineyard","operator":"J Rochioli Vineyards & Winery"},"geometry":{"type":"Point","coordinates":[-122.87303,38.53418]}},{"type":"Feature","properties":{"name":"Rachael's Vineyard - Sweetwater Vineyard","operator":"J Rochioli Vineyards & Winery"},"geometry":{"type":"Point","coordinates":[-122.87202,38.53407]}},{"type":"Feature","properties":{"name":"Sweetwater Vineyard","operator":"J Rochioli Vineyards & Winery"},"geometry":{"type":"Point","coordinates":[-122.87288,38.53294]}},{"type":"Feature","properties":{"name":"West Blcok Selection - Big Hill","operator":"J Rochioli Vineyards & Winery"},"geometry":{"type":"Point","coordinates":[-122.87111,38.5331]}},{"type":"Feature","properties":{"name":"Wsest Block Selection - Little Hill","operator":"J Rochioli Vineyards & Winery"},"geometry":{"type":"Point","coordinates":[-122.87005,38.53413]}},{"type":"Feature","properties":{"name":"Little Hill","operator":"J Rochioli Vineyards & Winery"},"geometry":{"type":"Point","coordinates":[-122.8697,38.53294]}},{"type":"Feature","properties":{"name":"Little Hill","operator":"J Rochioli Vineyards & Winery"},"geometry":{"type":"Point","coordinates":[-122.86849,38.53291]}},{"type":"Feature","properties":{"name":"Little Hill","operator":"J Rochioli Vineyards & Winery"},"geometry":{"type":"Point","coordinates":[-122.86907,38.53291]}},{"type":"Feature","properties":{"name":"West Block Selection - Little Hill","operator":"J Rochioli Vineyards & Winery"},"geometry":{"type":"Point","coordinates":[-122.87026,38.53295]}},{"type":"Feature","properties":{"name":"River Block","operator":"J Rochioli Vineyards & Winery"},"geometry":{"type":"Point","coordinates":[-122.86256,38.53368]}},{"type":"Feature","properties":{"name":"River Block","operator":"J Rochioli Vineyards & Winery"},"geometry":{"type":"Point","coordinates":[-122.86252,38.532]}},{"type":"Feature","properties":{"name":"River Block","operator":"J Rochioli Vineyards & Winery"},"geometry":{"type":"Point","coordinates":[-122.86305,38.53044]}},{"type":"Feature","properties":{"name":"East Block - Mid 40","operator":"J Rochioli Vineyards & Winery"},"geometry":{"type":"Point","coordinates":[-122.86482,38.53066]}},{"type":"Feature","properties":{"name":"West Block - Mid 40","operator":"J Rochioli Vineyards & Winery"},"geometry":{"type":"Point","coordinates":[-122.8655,38.53074]}},{"type":"Feature","properties":{"name":"Old VienWest Block - Mid 40","operator":"J Rochioli Vineyards & Winery"},"geometry":{"type":"Point","coordinates":[-122.86631,38.53087]}},{"type":"Feature","properties":{"name":"Three Corner Vineyard","operator":"J Rochioli Vineyards & Winery"},"geometry":{"type":"Point","coordinates":[-122.86716,38.53002]}},{"type":"Feature","properties":{"name":"West Block Selection","operator":"J Rochioli Vineyards & Winery"},"geometry":{"type":"Point","coordinates":[-122.86739,38.53109]}},{"type":"Feature","properties":{"name":"West Block Selection - Little Hill","operator":"J Rochioli Vineyards & Winery"},"geometry":{"type":"Point","coordinates":[-122.8685,38.53187]}},{"type":"Feature","properties":{"name":"RC Selection - Little Hill","operator":"J Rochioli Vineyards & Winery"},"geometry":{"type":"Point","coordinates":[-122.86906,38.53196]}},{"type":"Feature","properties":{"name":"Calera Selection - Big Hill","operator":"J Rochioli Vineyards & Winery"},"geometry":{"type":"Point","coordinates":[-122.87063,38.53301]}},{"type":"Feature","properties":{"name":"Big Hill","operator":"J Rochioli Vineyards & Winery"},"geometry":{"type":"Point","coordinates":[-122.87172,38.53316]}},{"type":"Feature","properties":{"name":"Wente Selection - Sweetwater Vineyard","operator":"J Rochioli Vineyards & Winery"},"geometry":{"type":"Point","coordinates":[-122.87683,38.53352]}},{"type":"Feature","properties":{"name":"Little Hill","operator":"J Rochioli Vineyards & Winery"},"geometry":{"type":"Point","coordinates":[-122.86898,38.53403]}},{"type":"Feature","properties":{"name":"High Acres","operator":"Left Coast Estate"},"geometry":{"type":"Point","coordinates":[-123.23241,45.00247]}},{"type":"Feature","properties":{"name":"Field of Dreams","operator":"Left Coast Estate"},"geometry":{"type":"Point","coordinates":[-123.23238,45.00097]}},{"type":"Feature","properties":{"name":"Field of Dreams","operator":"Left Coast Estate"},"geometry":{"type":"Point","coordinates":[-123.23243,44.99978]}},{"type":"Feature","properties":{"name":"The Left Bank","operator":"Left Coast Estate"},"geometry":{"type":"Point","coordinates":[-123.23005,44.99892]}},{"type":"Feature","properties":{"name":"The Left Bank","operator":"Left Coast Estate"},"geometry":{"type":"Point","coordinates":[-123.22912,44.99951]}},{"type":"Feature","properties":{"name":"Truffle Hill","operator":"Left Coast Estate"},"geometry":{"type":"Point","coordinates":[-123.22722,44.9927]}},{"type":"Feature","properties":{"name":"Truffle Hill","operator":"Left Coast Estate"},"geometry":{"type":"Point","coordinates":[-123.22945,44.99265]}},{"type":"Feature","properties":{"name":"Truffle Hill","operator":"Left Coast Estate"},"geometry":{"type":"Point","coordinates":[-123.2295,44.99346]}},{"type":"Feature","properties":{"name":"Truffle Hill","operator":"Left Coast Estate"},"geometry":{"type":"Point","coordinates":[-123.22931,44.99424]}},{"type":"Feature","properties":{"name":"Truffle Hill","operator":"Left Coast Estate"},"geometry":{"type":"Point","coordinates":[-123.22977,44.99542]}},{"type":"Feature","properties":{"name":"The Left Bank","operator":"Left Coast Estate"},"geometry":{"type":"Point","coordinates":[-123.2277,44.99876]}},{"type":"Feature","properties":{"name":"The Left Bank","operator":"Left Coast Estate"},"geometry":{"type":"Point","coordinates":[-123.2271,44.99913]}},{"type":"Feature","properties":{"name":"The Orchards","operator":"Left Coast Estate"},"geometry":{"type":"Point","coordinates":[-123.22401,44.9966]}},{"type":"Feature","properties":{"name":"The Bench","operator":"Left Coast Estate"},"geometry":{"type":"Point","coordinates":[-123.22392,44.99799]}},{"type":"Feature","properties":{"name":"The Bench","operator":"Left Coast Estate"},"geometry":{"type":"Point","coordinates":[-123.22304,44.99946]}},{"type":"Feature","properties":{"name":"The Bench","operator":"Left Coast Estate"},"geometry":{"type":"Point","coordinates":[-123.2207,44.99578]}},{"type":"Feature","properties":{"name":"Latitude 45","operator":"Left Coast Estate"},"geometry":{"type":"Point","coordinates":[-123.21528,44.9962]}},{"type":"Feature","properties":{"name":"Latitude 45","operator":"Left Coast Estate"},"geometry":{"type":"Point","coordinates":[-123.21363,44.99513]}},{"type":"Feature","properties":{"name":"Latitude 45","operator":"Left Coast Estate"},"geometry":{"type":"Point","coordinates":[-123.21755,44.99745]}},{"type":"Feature","properties":{"name":"The Right Bank","operator":"Left Coast Estate"},"geometry":{"type":"Point","coordinates":[-123.21634,44.99856]}},{"type":"Feature","properties":{"name":"The Right Bank","operator":"Left Coast Estate"},"geometry":{"type":"Point","coordinates":[-123.2161,44.99758]}},{"type":"Feature","properties":{"name":"The Right Bank","operator":"Left Coast Estate"},"geometry":{"type":"Point","coordinates":[-123.2151,44.99846]}},{"type":"Feature","properties":{"name":"Pfieffer Winery","operator":""},"geometry":{"type":"Point","coordinates":[-123.36624,44.23867]}},{"type":"Feature","properties":{"name":"Solaksen Vineyard","operator":""},"geometry":{"type":"Point","coordinates":[-119.52678,46.94846]}},{"type":"Feature","properties":{"name":"Willamette Valley Vineyards","operator":""},"geometry":{"type":"Point","coordinates":[-123.00632,44.82528]}},{"type":"Feature","properties":{"name":"Willamette Valley Vineyards","operator":""},"geometry":{"type":"Point","coordinates":[-123.00587,44.82434]}},{"type":"Feature","properties":{"name":"Sanders Family Winery","operator":""},"geometry":{"type":"Point","coordinates":[-115.94361,36.11763]}},{"type":"Feature","properties":{"name":"Elk Haven Vineyard","operator":""},"geometry":{"type":"Point","coordinates":[-116.85109,47.43031]}},{"type":"Feature","properties":{"name":"Brown Dog Vineyards","operator":""},"geometry":{"type":"Point","coordinates":[-122.84633,38.41067]}},{"type":"Feature","properties":{"name":"Badger Mountain Organic Vineyard","operator":""},"geometry":{"type":"Point","coordinates":[-119.29072,46.21537]}},{"type":"Feature","properties":{"name":"Iverson Vineyards & Winery","operator":""},"geometry":{"type":"Point","coordinates":[-120.65759,38.5959]}},{"type":"Feature","properties":{"name":"Stonehaus","operator":""},"geometry":{"type":"Point","coordinates":[-118.81877,34.14844]}},{"type":"Feature","properties":{"name":"Guglielmo Vineyard","operator":""},"geometry":{"type":"Point","coordinates":[-121.63245,37.14375]}},{"type":"Feature","properties":{"name":"Castillo's Hillside Shire Winery","operator":""},"geometry":{"type":"Point","coordinates":[-121.62285,37.15375]}},{"type":"Feature","properties":{"name":"Sycamore Creek Vineyards","operator":""},"geometry":{"type":"Point","coordinates":[-121.66531,37.0594]}},{"type":"Feature","properties":{"name":"Miramar Vineyards","operator":""},"geometry":{"type":"Point","coordinates":[-121.56629,37.08295]}},{"type":"Feature","properties":{"name":"Burnsini Vineyards","operator":""},"geometry":{"type":"Point","coordinates":[-122.31057,40.35386]}},{"type":"Feature","properties":{"name":"Moore Family Vineyards","operator":""},"geometry":{"type":"Point","coordinates":[-122.73916,44.41385]}},{"type":"Feature","properties":{"name":"D & L Carinalli Vineyards","operator":""},"geometry":{"type":"Point","coordinates":[-122.76445,38.3521]}},{"type":"Feature","properties":{"name":"San Juan Vineyard","operator":""},"geometry":{"type":"Point","coordinates":[-123.0636,48.56833]}},{"type":"Feature","properties":{"name":"Cleary Ranch Vineyards","operator":""},"geometry":{"type":"Point","coordinates":[-122.9257,38.37936]}},{"type":"Feature","properties":{"name":"Michael Valentine's Vineyard","operator":""},"geometry":{"type":"Point","coordinates":[-122.92809,38.38168]}},{"type":"Feature","properties":{"name":"Calhoun Vineyard","operator":""},"geometry":{"type":"Point","coordinates":[-122.66714,42.20827]}},{"type":"Feature","properties":{"name":"Robert Sinskey Vineyards","operator":""},"geometry":{"type":"Point","coordinates":[-122.337,38.42543]}},{"type":"Feature","properties":{"name":"North Slope Block","operator":"Elk Cove Vineyards"},"geometry":{"type":"Point","coordinates":[-123.04028,45.44889]}},{"type":"Feature","properties":{"name":"Block A","operator":"Elk Cove Vineyards"},"geometry":{"type":"Point","coordinates":[-122.83573,45.32737]}},{"type":"Feature","properties":{"name":"Block C","operator":"Elk Cove Vineyards"},"geometry":{"type":"Point","coordinates":[-122.83573,45.32631]}},{"type":"Feature","properties":{"name":"Block E","operator":"Elk Cove Vineyards"},"geometry":{"type":"Point","coordinates":[-122.83505,45.32509]}},{"type":"Feature","properties":{"name":"Block D","operator":"Elk Cove Vineyards"},"geometry":{"type":"Point","coordinates":[-122.83434,45.32634]}},{"type":"Feature","properties":{"name":"Block B","operator":"Elk Cove Vineyards"},"geometry":{"type":"Point","coordinates":[-122.83448,45.32746]}},{"type":"Feature","properties":{"name":"Alderlea Vineyards","operator":""},"geometry":{"type":"Point","coordinates":[-123.65182,48.81654]}},{"type":"Feature","properties":{"name":"Monserate Winery","operator":""},"geometry":{"type":"Point","coordinates":[-117.19075,33.34211]}},{"type":"Feature","properties":{"name":"Saison Market Vineyard","operator":""},"geometry":{"type":"Point","coordinates":[-123.70511,48.83748]}},{"type":"Feature","properties":{"name":"Ridge Winery Vineyards","operator":"Ridge Wine"},"geometry":{"type":"Point","coordinates":[-122.1165,37.2984]}},{"type":"Feature","properties":{"name":"Waterbrook Winery","operator":""},"geometry":{"type":"Point","coordinates":[-118.55651,46.05386]}},{"type":"Feature","properties":{"name":"Dorcich Family Vineyards","operator":""},"geometry":{"type":"Point","coordinates":[-121.65571,37.04588]}},{"type":"Feature","properties":{"name":"Bedrock Vineyard","operator":"Bedrock Wine Co."},"geometry":{"type":"Point","coordinates":[-122.50002,38.33766]}},{"type":"Feature","properties":{"name":"Dionysus Vineyard","operator":"BnD Vineyards LLC"},"geometry":{"type":"Point","coordinates":[-119.24528,46.44962]}},{"type":"Feature","properties":{"name":"Bacchus Vineyard","operator":"BnD Vineyards LLC"},"geometry":{"type":"Point","coordinates":[-119.23912,46.44175]}},{"type":"Feature","properties":{"name":"Gamache Vineyard","operator":""},"geometry":{"type":"Point","coordinates":[-119.20208,46.58503]}},{"type":"Feature","properties":{"name":"Averill Creek Vineyard","operator":""},"geometry":{"type":"Point","coordinates":[-123.7643,48.81124]}},{"type":"Feature","properties":{"name":"Blue Grouse Estate Winery","operator":""},"geometry":{"type":"Point","coordinates":[-123.65374,48.72389]}},{"type":"Feature","properties":{"name":"Zanatta Estate Vineyard","operator":""},"geometry":{"type":"Point","coordinates":[-123.74659,48.75262]}},{"type":"Feature","properties":{"name":"Emandare Vineyard","operator":""},"geometry":{"type":"Point","coordinates":[-123.70116,48.81421]}},{"type":"Feature","properties":{"name":"Enrico - Estate Vineyard","operator":"Enrico Winery"},"geometry":{"type":"Point","coordinates":[-123.55533,48.67698]}},{"type":"Feature","properties":{"name":"La Boh\u00e8me Block","operator":"Elk Cove Vineyards"},"geometry":{"type":"Point","coordinates":[-123.18753,45.41644]}},{"type":"Feature","properties":{"name":"Roosevelt Block","operator":"Elk Cove Vineyards"},"geometry":{"type":"Point","coordinates":[-123.18694,45.41358]}},{"type":"Feature","properties":{"name":"Elk Cove - Five Mountain Vineyard","operator":"Elk Cove Vineyards"},"geometry":{"type":"Point","coordinates":[-123.03857,45.44968]}},{"type":"Feature","properties":{"name":"Elk Cove - Clay Court Vineyard","operator":"Elk Cove Vineyards"},"geometry":{"type":"Point","coordinates":[-122.83503,45.32625]}},{"type":"Feature","properties":{"name":"2Hawk Vineyard & Winery","operator":"2Hawk Vineyard & Winery"},"geometry":{"type":"Point","coordinates":[-122.81142,42.29634]}},{"type":"Feature","properties":{"name":"Agua Dulce Winery","operator":"Agua Dulce Winery"},"geometry":{"type":"Point","coordinates":[-118.30212,34.51891]}},{"type":"Feature","properties":{"name":"Bidart Bros.","operator":"Bidart Bros."},"geometry":{"type":"Point","coordinates":[-119.14419,35.47491]}},{"type":"Feature","properties":{"name":"Deep Cove Winery","operator":"Deep Cove Winery"},"geometry":{"type":"Point","coordinates":[-123.47067,48.68674]}},{"type":"Feature","properties":{"name":"Elk Cove Vineyards","operator":"Elk Cove Vineyards"},"geometry":{"type":"Point","coordinates":[-123.18408,45.41565]}},{"type":"Feature","properties":{"name":"Faith, Hope, and Charity Vineyards","operator":"Faith, Hope, and Charity Vineyards"},"geometry":{"type":"Point","coordinates":[-121.33459,44.34441]}},{"type":"Feature","properties":{"name":"J Rochioli Vineyards & Winery","operator":"J Rochioli Vineyards & Winery"},"geometry":{"type":"Point","coordinates":[-122.86808,38.53395]}},{"type":"Feature","properties":{"name":"Matson Winery","operator":"Matson Winery"},"geometry":{"type":"Point","coordinates":[-122.29998,40.5939]}},{"type":"Feature","properties":{"name":"Montinore Estate","operator":"Montinore Estate"},"geometry":{"type":"Point","coordinates":[-123.1381,45.4931]}},{"type":"Feature","properties":{"name":"Mumm Napa","operator":"Mumm Napa"},"geometry":{"type":"Point","coordinates":[-122.37078,38.25863]}},{"type":"Feature","properties":{"name":"Niner Wine Estates","operator":"Niner Wine Estates"},"geometry":{"type":"Point","coordinates":[-120.74037,35.57191]}},{"type":"Feature","properties":{"name":"Quailhurst Estate","operator":"Quailhurst Estate"},"geometry":{"type":"Point","coordinates":[-122.84148,45.33103]}},{"type":"Feature","properties":{"name":"Reyes Winery","operator":"Reyes Winery"},"geometry":{"type":"Point","coordinates":[-118.31229,34.51609]}},{"type":"Feature","properties":{"name":"Sage Hayward Vineyards","operator":"Sage Hayward Vineyards"},"geometry":{"type":"Point","coordinates":[-123.18916,48.77442]}},{"type":"Feature","properties":{"name":"Sierra Ranch","operator":"Sierra Ranch"},"geometry":{"type":"Point","coordinates":[-120.6208,37.73117]}},{"type":"Feature","properties":{"name":"Sine Qua Non","operator":"Sine Qua Non"},"geometry":{"type":"Point","coordinates":[-119.31666,34.40401]}},{"type":"Feature","properties":{"name":"Sunstone Winery","operator":"Sunstone Winery"},"geometry":{"type":"Point","coordinates":[-120.10395,34.58695]}},{"type":"Feature","properties":{"name":"University of California Cooperative Extension - Stanislaus County","operator":"University of California Cooperative Extension - Stanislaus County"},"geometry":{"type":"Point","coordinates":[-120.99324,37.58341]}},{"type":"Feature","properties":{"name":"Willson Winery","operator":"Willson Winery"},"geometry":{"type":"Point","coordinates":[-122.88129,38.57432]}},{"type":"Feature","properties":{"name":"Zanatta Estate Winery","operator":"Zanatta Estate Winery"},"geometry":{"type":"Point","coordinates":[-123.7483,48.75373]}}]}