{"type":"FeatureCollection","features":[{"type":"Feature","properties":{"name":"L'Hermite","appellation":"Hermitage","classification":"lieu_dit","overlap":90.6},"geometry":{"type":"Point","coordinates":[4.84038,45.0777]}},{"type":"Feature","properties":{"name":"Les Greffieux","appellation":"Hermitage","classification":"lieu_dit","overlap":90.4},"geometry":{"type":"Point","coordinates":[4.84199,45.07387]}},{"type":"Feature","properties":{"name":"Bessar","appellation":"Hermitage","classification":"lieu_dit","overlap":96.0},"geometry":{"type":"Point","coordinates":[4.83408,45.07625]}},{"type":"Feature","properties":{"name":"Le Meal","appellation":"Hermitage","classification":"lieu_dit","overlap":99.0},"geometry":{"type":"Point","coordinates":[4.84205,45.07547]}},{"type":"Feature","properties":{"name":"Varogne","appellation":"Hermitage","classification":"lieu_dit","overlap":32.3},"geometry":{"type":"Point","coordinates":[4.83183,45.07835]}},{"type":"Feature","properties":{"name":"Beaume","appellation":"Hermitage","classification":"lieu_dit","overlap":91.5},"geometry":{"type":"Point","coordinates":[4.84695,45.07565]}},{"type":"Feature","properties":{"name":"Les Diognieres","appellation":"Hermitage","classification":"lieu_dit","overlap":44.6},"geometry":{"type":"Point","coordinates":[4.85251,45.07368]}},{"type":"Feature","properties":{"name":"Les Murets","appellation":"Hermitage","classification":"lieu_dit","overlap":93.9},"geometry":{"type":"Point","coordinates":[4.85541,45.07543]}},{"type":"Feature","properties":{"name":"Diognieres et Torras","appellation":"Hermitage","classification":"lieu_dit","overlap":55.6},"geometry":{"type":"Point","coordinates":[4.8573,45.07327]}},{"type":"Feature","properties":{"name":"Roucoule","appellation":"Hermitage","classification":"lieu_dit","overlap":93.5},"geometry":{"type":"Point","coordinates":[4.85118,45.07574]}},{"type":"Feature","properties":{"name":"Le Colombier","appellation":"Hermitage","classification":"lieu_dit","overlap":0.0},"geometry":{"type":"Point","coordinates":[4.85993,45.0726]}},{"type":"Feature","properties":{"name":"La Croix","appellation":"Hermitage","classification":"lieu_dit","overlap":95.4},"geometry":{"type":"Point","coordinates":[4.85959,45.07585]}},{"type":"Feature","properties":{"name":"Maison Blanche","appellation":"Hermitage","classification":"lieu_dit","overlap":68.8},"geometry":{"type":"Point","coordinates":[4.84914,45.07741]}},{"type":"Feature","properties":{"name":"L'Homme","appellation":"Hermitage","classification":"lieu_dit","overlap":49.4},"geometry":{"type":"Point","coordinates":[4.85622,45.07763]}},{"type":"Feature","properties":{"name":"Peleat","appellation":"Hermitage","classification":"lieu_dit","overlap":92.1},"geometry":{"type":"Point","coordinates":[4.84898,45.07483]}},{"type":"Feature","properties":{"name":"La Pierrelle","appellation":"Hermitage","classification":"lieu_dit","overlap":50.8},"geometry":{"type":"Point","coordinates":[4.85347,45.07711]}},{"type":"Feature","properties":{"name":"La Croix de Jamanot","appellation":"Hermitage","classification":"lieu_dit","overlap":6.7},"geometry":{"type":"Point","coordinates":[4.84655,45.07202]}},{"type":"Feature","properties":{"name":"Les Plantiers","appellation":"Hermitage","classification":"lieu_dit","overlap":25.4},"geometry":{"type":"Point","coordinates":[4.83904,45.0731]}},{"type":"Feature","properties":{"name":"Les Vercandiere","appellation":"Hermitage","classification":"lieu_dit","overlap":16.7},"geometry":{"type":"Point","coordinates":[4.83436,45.07397]}},{"type":"Feature","properties":{"name":"Bons Arrets","appellation":"Côte-Rôtie","classification":"lieu_dit","overlap":7.9},"geometry":{"type":"Point","coordinates":[4.791,45.48678]}},{"type":"Feature","properties":{"name":"Coteaux de Tupin","appellation":"Côte-Rôtie","classification":"lieu_dit","overlap":97.1},"geometry":{"type":"Point","coordinates":[4.78745,45.48577]}},{"type":"Feature","properties":{"name":"Pimotin","appellation":"Côte-Rôtie","classification":"lieu_dit","overlap":62.7},"geometry":{"type":"Point","coordinates":[4.78554,45.48737]}},{"type":"Feature","properties":{"name":"Beton","appellation":"Côte-Rôtie","classification":"lieu_dit","overlap":31.1},"geometry":{"type":"Point","coordinates":[4.77696,45.48214]}},{"type":"Feature","properties":{"name":"Les Bercheries","appellation":"Côte-Rôtie","classification":"lieu_dit","overlap":86.0},"geometry":{"type":"Point","coordinates":[4.77965,45.48264]}},{"type":"Feature","properties":{"name":"Maison Rouge","appellation":"Côte-Rôtie","classification":"lieu_dit","overlap":69.5},"geometry":{"type":"Point","coordinates":[4.78303,45.48157]}},{"type":"Feature","properties":{"name":"But de Mont","appellation":"Côte-Rôtie","classification":"lieu_dit","overlap":73.5},"geometry":{"type":"Point","coordinates":[4.78211,45.48445]}},{"type":"Feature","properties":{"name":"Collet","appellation":"Côte-Rôtie","classification":"lieu_dit","overlap":95.9},"geometry":{"type":"Point","coordinates":[4.78481,45.48451]}},{"type":"Feature","properties":{"name":"Tupin","appellation":"Côte-Rôtie","classification":"lieu_dit","overlap":31.3},"geometry":{"type":"Point","coordinates":[4.78926,45.48426]}},{"type":"Feature","properties":{"name":"La Tour","appellation":"Côte-Rôtie","classification":"lieu_dit","overlap":10.0},"geometry":{"type":"Point","coordinates":[4.77447,45.47838]}},{"type":"Feature","properties":{"name":"Coteaux de Bassenon","appellation":"Côte-Rôtie","classification":"lieu_dit","overlap":84.4},"geometry":{"type":"Point","coordinates":[4.77432,45.47489]}},{"type":"Feature","properties":{"name":"Corps de Loup","appellation":"Côte-Rôtie","classification":"lieu_dit","overlap":67.3},"geometry":{"type":"Point","coordinates":[4.77935,45.4771]}},{"type":"Feature","properties":{"name":"Semons","appellation":"Côte-Rôtie","classification":"lieu_dit","overlap":77.2},"geometry":{"type":"Point","coordinates":[4.77722,45.47835]}},{"type":"Feature","properties":{"name":"Maisons Blanches","appellation":"Côte-Rôtie","classification":"lieu_dit","overlap":34.2},"geometry":{"type":"Point","coordinates":[4.77079,45.47835]}},{"type":"Feature","properties":{"name":"Jouvet","appellation":"Cornas","classification":"lieu_dit","overlap":97.1},"geometry":{"type":"Point","coordinates":[4.82533,44.9736]}},{"type":"Feature","properties":{"name":"Les Eygas","appellation":"Cornas","classification":"lieu_dit","overlap":97.3},"geometry":{"type":"Point","coordinates":[4.83443,44.97438]}},{"type":"Feature","properties":{"name":"Pied la Vigne","appellation":"Cornas","classification":"lieu_dit","overlap":48.8},"geometry":{"type":"Point","coordinates":[4.849,44.97034]}},{"type":"Feature","properties":{"name":"Les Arlettes","appellation":"Cornas","classification":"lieu_dit","overlap":32.1},"geometry":{"type":"Point","coordinates":[4.84051,44.97568]}},{"type":"Feature","properties":{"name":"Saint-pierre","appellation":"Cornas","classification":"lieu_dit","overlap":95.6},"geometry":{"type":"Point","coordinates":[4.83142,44.96843]}},{"type":"Feature","properties":{"name":"Chaban","appellation":"Cornas","classification":"lieu_dit","overlap":97.2},"geometry":{"type":"Point","coordinates":[4.82025,44.96657]}},{"type":"Feature","properties":{"name":"Les Rieux","appellation":"Cornas","classification":"lieu_dit","overlap":97.5},"geometry":{"type":"Point","coordinates":[4.82342,44.96241]}},{"type":"Feature","properties":{"name":"Sauman","appellation":"Cornas","classification":"lieu_dit","overlap":97.8},"geometry":{"type":"Point","coordinates":[4.83629,44.96368]}},{"type":"Feature","properties":{"name":"Legre","appellation":"Cornas","classification":"lieu_dit","overlap":98.0},"geometry":{"type":"Point","coordinates":[4.83349,44.96086]}},{"type":"Feature","properties":{"name":"Les Pres","appellation":"Cornas","classification":"lieu_dit","overlap":97.8},"geometry":{"type":"Point","coordinates":[4.82781,44.95882]}},{"type":"Feature","properties":{"name":"Les Cotes","appellation":"Cornas","classification":"lieu_dit","overlap":95.7},"geometry":{"type":"Point","coordinates":[4.83899,44.95888]}},{"type":"Feature","properties":{"name":"Patou","appellation":"Cornas","classification":"lieu_dit","overlap":99.9},"geometry":{"type":"Point","coordinates":[4.84393,44.9574]}},{"type":"Feature","properties":{"name":"Combe","appellation":"Cornas","classification":"lieu_dit","overlap":99.2},"geometry":{"type":"Point","coordinates":[4.84312,44.95527]}},{"type":"Feature","properties":{"name":"Reynard","appellation":"Cornas","classification":"lieu_dit","overlap":94.7},"geometry":{"type":"Point","coordinates":[4.83957,44.96616]}},{"type":"Feature","properties":{"name":"La Mure","appellation":"Cornas","classification":"lieu_dit","overlap":3.1},"geometry":{"type":"Point","coordinates":[4.85184,44.97093]}},{"type":"Feature","properties":{"name":"Les Saveux-Sud","appellation":"Cornas","classification":"lieu_dit","overlap":100.0},"geometry":{"type":"Point","coordinates":[4.8454,44.95864]}},{"type":"Feature","properties":{"name":"Le Village Sud","appellation":"Cornas","classification":"lieu_dit","overlap":56.3},"geometry":{"type":"Point","coordinates":[4.8481,44.9624]}},{"type":"Feature","properties":{"name":"Les Saveaux-Nord","appellation":"Cornas","classification":"lieu_dit","overlap":97.6},"geometry":{"type":"Point","coordinates":[4.8454,44.96028]}},{"type":"Feature","properties":{"name":"Champelrose","appellation":"Cornas","classification":"lieu_dit","overlap":97.6},"geometry":{"type":"Point","coordinates":[4.84354,44.96218]}},{"type":"Feature","properties":{"name":"Les Mazards","appellation":"Cornas","classification":"lieu_dit","overlap":93.4},"geometry":{"type":"Point","coordinates":[4.84611,44.96643]}},{"type":"Feature","properties":{"name":"Cayret","appellation":"Cornas","classification":"lieu_dit","overlap":93.9},"geometry":{"type":"Point","coordinates":[4.84359,44.96418]}},{"type":"Feature","properties":{"name":"Chaillot","appellation":"Cornas","classification":"lieu_dit","overlap":94.3},"geometry":{"type":"Point","coordinates":[4.844,44.96973]}},{"type":"Feature","properties":{"name":"La Cote","appellation":"Cornas","classification":"lieu_dit","overlap":97.5},"geometry":{"type":"Point","coordinates":[4.84372,44.96744]}},{"type":"Feature","properties":{"name":"Jacemont","appellation":"Cornas","classification":"lieu_dit","overlap":76.4},"geometry":{"type":"Point","coordinates":[4.8503,44.9658]}},{"type":"Feature","properties":{"name":"Le Village","appellation":"Cornas","classification":"lieu_dit","overlap":75.3},"geometry":{"type":"Point","coordinates":[4.84812,44.96407]}},{"type":"Feature","properties":{"name":"Montredon","appellation":"Châteauneuf-du-Pape","classification":"lieu_dit","overlap":97.8},"geometry":{"type":"Point","coordinates":[4.80669,44.08122]}},{"type":"Feature","properties":{"name":"Brusquieres-ouest","appellation":"Châteauneuf-du-Pape","classification":"lieu_dit","overlap":99.2},"geometry":{"type":"Point","coordinates":[4.81656,44.08457]}},{"type":"Feature","properties":{"name":"Farguerol-nord","appellation":"Châteauneuf-du-Pape","classification":"lieu_dit","overlap":96.9},"geometry":{"type":"Point","coordinates":[4.81484,44.07936]}},{"type":"Feature","properties":{"name":"Pradel","appellation":"Châteauneuf-du-Pape","classification":"lieu_dit","overlap":97.3},"geometry":{"type":"Point","coordinates":[4.80722,44.07218]}},{"type":"Feature","properties":{"name":"Le-coteau-de-l'ange","appellation":"Châteauneuf-du-Pape","classification":"lieu_dit","overlap":99.5},"geometry":{"type":"Point","coordinates":[4.81623,44.07037]}},{"type":"Feature","properties":{"name":"Farguerol-sud","appellation":"Châteauneuf-du-Pape","classification":"lieu_dit","overlap":96.6},"geometry":{"type":"Point","coordinates":[4.81679,44.07473]}},{"type":"Feature","properties":{"name":"L'Arnesque","appellation":"Châteauneuf-du-Pape","classification":"lieu_dit","overlap":97.5},"geometry":{"type":"Point","coordinates":[4.81116,44.07307]}},{"type":"Feature","properties":{"name":"Le-four-a-chaux","appellation":"Châteauneuf-du-Pape","classification":"lieu_dit","overlap":96.6},"geometry":{"type":"Point","coordinates":[4.82122,44.06937]}},{"type":"Feature","properties":{"name":"Le-grand-deves","appellation":"Châteauneuf-du-Pape","classification":"lieu_dit","overlap":97.1},"geometry":{"type":"Point","coordinates":[4.81674,44.06362]}},{"type":"Feature","properties":{"name":"Les-esqueirons","appellation":"Châteauneuf-du-Pape","classification":"lieu_dit","overlap":97.2},"geometry":{"type":"Point","coordinates":[4.82223,44.06211]}},{"type":"Feature","properties":{"name":"La-gardine","appellation":"Châteauneuf-du-Pape","classification":"lieu_dit","overlap":98.1},"geometry":{"type":"Point","coordinates":[4.81258,44.0656]}},{"type":"Feature","properties":{"name":"Le-deves-d'estouard","appellation":"Châteauneuf-du-Pape","classification":"lieu_dit","overlap":99.9},"geometry":{"type":"Point","coordinates":[4.82046,44.05994]}},{"type":"Feature","properties":{"name":"Les-bourguignons","appellation":"Châteauneuf-du-Pape","classification":"lieu_dit","overlap":98.0},"geometry":{"type":"Point","coordinates":[4.81976,44.05823]}},{"type":"Feature","properties":{"name":"Les-cabanes","appellation":"Châteauneuf-du-Pape","classification":"lieu_dit","overlap":97.2},"geometry":{"type":"Point","coordinates":[4.82553,44.05727]}},{"type":"Feature","properties":{"name":"Le-pied-de-baud","appellation":"Châteauneuf-du-Pape","classification":"lieu_dit","overlap":98.1},"geometry":{"type":"Point","coordinates":[4.82205,44.07676]}},{"type":"Feature","properties":{"name":"Cabrieres","appellation":"Châteauneuf-du-Pape","classification":"lieu_dit","overlap":97.7},"geometry":{"type":"Point","coordinates":[4.82801,44.07914]}},{"type":"Feature","properties":{"name":"Les-brusquieres","appellation":"Châteauneuf-du-Pape","classification":"lieu_dit","overlap":96.8},"geometry":{"type":"Point","coordinates":[4.82674,44.08386]}},{"type":"Feature","properties":{"name":"Le-tresquoys","appellation":"Châteauneuf-du-Pape","classification":"lieu_dit","overlap":97.2},"geometry":{"type":"Point","coordinates":[4.82573,44.06647]}},{"type":"Feature","properties":{"name":"Les-grandes-galiguieres","appellation":"Châteauneuf-du-Pape","classification":"lieu_dit","overlap":97.3},"geometry":{"type":"Point","coordinates":[4.82961,44.07198]}},{"type":"Feature","properties":{"name":"Le-parc","appellation":"Châteauneuf-du-Pape","classification":"lieu_dit","overlap":96.0},"geometry":{"type":"Point","coordinates":[4.82732,44.05998]}},{"type":"Feature","properties":{"name":"Le-pied-long","appellation":"Châteauneuf-du-Pape","classification":"lieu_dit","overlap":97.4},"geometry":{"type":"Point","coordinates":[4.8357,44.07748]}},{"type":"Feature","properties":{"name":"La-roquette","appellation":"Châteauneuf-du-Pape","classification":"lieu_dit","overlap":97.5},"geometry":{"type":"Point","coordinates":[4.84059,44.07464]}},{"type":"Feature","properties":{"name":"Pignan","appellation":"Châteauneuf-du-Pape","classification":"lieu_dit","overlap":98.9},"geometry":{"type":"Point","coordinates":[4.84441,44.07376]}},{"type":"Feature","properties":{"name":"Les-terres-blanches","appellation":"Châteauneuf-du-Pape","classification":"lieu_dit","overlap":97.9},"geometry":{"type":"Point","coordinates":[4.83609,44.06682]}},{"type":"Feature","properties":{"name":"Les-bousquets","appellation":"Châteauneuf-du-Pape","classification":"lieu_dit","overlap":95.7},"geometry":{"type":"Point","coordinates":[4.83132,44.06438]}},{"type":"Feature","properties":{"name":"Les-roumiguieres","appellation":"Châteauneuf-du-Pape","classification":"lieu_dit","overlap":96.9},"geometry":{"type":"Point","coordinates":[4.83815,44.06166]}},{"type":"Feature","properties":{"name":"Le-castelas","appellation":"Châteauneuf-du-Pape","classification":"lieu_dit","overlap":98.9},"geometry":{"type":"Point","coordinates":[4.8436,44.0652]}},{"type":"Feature","properties":{"name":"Vaudieu","appellation":"Châteauneuf-du-Pape","classification":"lieu_dit","overlap":98.5},"geometry":{"type":"Point","coordinates":[4.84259,44.06938]}},{"type":"Feature","properties":{"name":"Le-grand-pierre","appellation":"Châteauneuf-du-Pape","classification":"lieu_dit","overlap":97.5},"geometry":{"type":"Point","coordinates":[4.85029,44.06831]}},{"type":"Feature","properties":{"name":"Bois-seneseau","appellation":"Châteauneuf-du-Pape","classification":"lieu_dit","overlap":98.2},"geometry":{"type":"Point","coordinates":[4.84906,44.06242]}},{"type":"Feature","properties":{"name":"Coste-froide","appellation":"Châteauneuf-du-Pape","classification":"lieu_dit","overlap":99.0},"geometry":{"type":"Point","coordinates":[4.84432,44.05753]}},{"type":"Feature","properties":{"name":"La-font-du-pape","appellation":"Châteauneuf-du-Pape","classification":"lieu_dit","overlap":96.6},"geometry":{"type":"Point","coordinates":[4.84005,44.05865]}},{"type":"Feature","properties":{"name":"Relagnes","appellation":"Châteauneuf-du-Pape","classification":"lieu_dit","overlap":96.3},"geometry":{"type":"Point","coordinates":[4.83955,44.05557]}},{"type":"Feature","properties":{"name":"Chemin-de-courtheson","appellation":"Châteauneuf-du-Pape","classification":"lieu_dit","overlap":92.4},"geometry":{"type":"Point","coordinates":[4.84101,44.06132]}},{"type":"Feature","properties":{"name":"Charbonnieres-ouest","appellation":"Châteauneuf-du-Pape","classification":"lieu_dit","overlap":97.9},"geometry":{"type":"Point","coordinates":[4.85467,44.06381]}},{"type":"Feature","properties":{"name":"Montalivet","appellation":"Châteauneuf-du-Pape","classification":"lieu_dit","overlap":96.6},"geometry":{"type":"Point","coordinates":[4.84918,44.0597]}},{"type":"Feature","properties":{"name":"Mont-de-vies","appellation":"Châteauneuf-du-Pape","classification":"lieu_dit","overlap":94.4},"geometry":{"type":"Point","coordinates":[4.85361,44.05332]}},{"type":"Feature","properties":{"name":"Le-boucoup","appellation":"Châteauneuf-du-Pape","classification":"lieu_dit","overlap":97.0},"geometry":{"type":"Point","coordinates":[4.84677,44.0553]}},{"type":"Feature","properties":{"name":"Blachieres","appellation":"Châteauneuf-du-Pape","classification":"lieu_dit","overlap":97.8},"geometry":{"type":"Point","coordinates":[4.85341,44.05875]}},{"type":"Feature","properties":{"name":"La-solitude","appellation":"Châteauneuf-du-Pape","classification":"lieu_dit","overlap":98.0},"geometry":{"type":"Point","coordinates":[4.85189,44.05585]}},{"type":"Feature","properties":{"name":"La-crau","appellation":"Châteauneuf-du-Pape","classification":"lieu_dit","overlap":97.6},"geometry":{"type":"Point","coordinates":[4.85875,44.05806]}},{"type":"Feature","properties":{"name":"Mont-pertuis","appellation":"Châteauneuf-du-Pape","classification":"lieu_dit","overlap":98.4},"geometry":{"type":"Point","coordinates":[4.86083,44.0538]}},{"type":"Feature","properties":{"name":"Charbonnieres-est","appellation":"Châteauneuf-du-Pape","classification":"lieu_dit","overlap":97.2},"geometry":{"type":"Point","coordinates":[4.8588,44.06337]}},{"type":"Feature","properties":{"name":"La-fortiasse","appellation":"Châteauneuf-du-Pape","classification":"lieu_dit","overlap":97.2},"geometry":{"type":"Point","coordinates":[4.84015,44.05203]}},{"type":"Feature","properties":{"name":"La-grenade","appellation":"Châteauneuf-du-Pape","classification":"lieu_dit","overlap":97.7},"geometry":{"type":"Point","coordinates":[4.84851,44.05071]}},{"type":"Feature","properties":{"name":"Le-chemin-de-sorgues","appellation":"Châteauneuf-du-Pape","classification":"lieu_dit","overlap":96.3},"geometry":{"type":"Point","coordinates":[4.84041,44.04934]}},{"type":"Feature","properties":{"name":"La-rigole","appellation":"Châteauneuf-du-Pape","classification":"lieu_dit","overlap":94.7},"geometry":{"type":"Point","coordinates":[4.84906,44.04478]}},{"type":"Feature","properties":{"name":"La-petite-bastide","appellation":"Châteauneuf-du-Pape","classification":"lieu_dit","overlap":97.2},"geometry":{"type":"Point","coordinates":[4.84685,44.04735]}},{"type":"Feature","properties":{"name":"Les-reves","appellation":"Châteauneuf-du-Pape","classification":"lieu_dit","overlap":96.6},"geometry":{"type":"Point","coordinates":[4.85544,44.04123]}},{"type":"Feature","properties":{"name":"La-nerthe","appellation":"Châteauneuf-du-Pape","classification":"lieu_dit","overlap":99.2},"geometry":{"type":"Point","coordinates":[4.86293,44.04729]}},{"type":"Feature","properties":{"name":"Cansaud","appellation":"Châteauneuf-du-Pape","classification":"lieu_dit","overlap":98.3},"geometry":{"type":"Point","coordinates":[4.85664,44.04803]}},{"type":"Feature","properties":{"name":"Pied-redon","appellation":"Châteauneuf-du-Pape","classification":"lieu_dit","overlap":98.9},"geometry":{"type":"Point","coordinates":[4.86172,44.04079]}},{"type":"Feature","properties":{"name":"Les-galimardes","appellation":"Châteauneuf-du-Pape","classification":"lieu_dit","overlap":98.0},"geometry":{"type":"Point","coordinates":[4.84071,44.04213]}},{"type":"Feature","properties":{"name":"Le-grand-chemin de-Sorgues","appellation":"Châteauneuf-du-Pape","classification":"lieu_dit","overlap":94.7},"geometry":{"type":"Point","coordinates":[4.84622,44.04319]}},{"type":"Feature","properties":{"name":"Les-serres","appellation":"Châteauneuf-du-Pape","classification":"lieu_dit","overlap":98.3},"geometry":{"type":"Point","coordinates":[4.84269,44.03619]}},{"type":"Feature","properties":{"name":"Les-coulets","appellation":"Châteauneuf-du-Pape","classification":"lieu_dit","overlap":94.1},"geometry":{"type":"Point","coordinates":[4.85138,44.03744]}},{"type":"Feature","properties":{"name":"Le-bois-de-la-ville","appellation":"Châteauneuf-du-Pape","classification":"lieu_dit","overlap":84.5},"geometry":{"type":"Point","coordinates":[4.81869,44.05094]}},{"type":"Feature","properties":{"name":"Les-grands-serres-ouest","appellation":"Châteauneuf-du-Pape","classification":"lieu_dit","overlap":98.7},"geometry":{"type":"Point","coordinates":[4.82613,44.04639]}},{"type":"Feature","properties":{"name":"Les-mascaronnes","appellation":"Châteauneuf-du-Pape","classification":"lieu_dit","overlap":94.4},"geometry":{"type":"Point","coordinates":[4.8328,44.0512]}},{"type":"Feature","properties":{"name":"La-bigote","appellation":"Châteauneuf-du-Pape","classification":"lieu_dit","overlap":96.5},"geometry":{"type":"Point","coordinates":[4.82407,44.05114]}},{"type":"Feature","properties":{"name":"Les-marines","appellation":"Châteauneuf-du-Pape","classification":"lieu_dit","overlap":98.9},"geometry":{"type":"Point","coordinates":[4.82857,44.05007]}},{"type":"Feature","properties":{"name":"Le-moulin-a-vent","appellation":"Châteauneuf-du-Pape","classification":"lieu_dit","overlap":97.5},"geometry":{"type":"Point","coordinates":[4.82812,44.05285]}},{"type":"Feature","properties":{"name":"Les-parrans","appellation":"Châteauneuf-du-Pape","classification":"lieu_dit","overlap":99.5},"geometry":{"type":"Point","coordinates":[4.83124,44.05391]}},{"type":"Feature","properties":{"name":"Le-petit-serres","appellation":"Châteauneuf-du-Pape","classification":"lieu_dit","overlap":98.9},"geometry":{"type":"Point","coordinates":[4.83375,44.04062]}},{"type":"Feature","properties":{"name":"Le-grand-serres","appellation":"Châteauneuf-du-Pape","classification":"lieu_dit","overlap":98.4},"geometry":{"type":"Point","coordinates":[4.82968,44.04298]}},{"type":"Feature","properties":{"name":"Le-bas-serres","appellation":"Châteauneuf-du-Pape","classification":"lieu_dit","overlap":57.7},"geometry":{"type":"Point","coordinates":[4.83565,44.03655]}},{"type":"Feature","properties":{"name":"Les-plagnes","appellation":"Châteauneuf-du-Pape","classification":"lieu_dit","overlap":97.1},"geometry":{"type":"Point","coordinates":[4.8333,44.04527]}},{"type":"Feature","properties":{"name":"Le-bois-de-boursan","appellation":"Châteauneuf-du-Pape","classification":"lieu_dit","overlap":97.6},"geometry":{"type":"Point","coordinates":[4.83357,44.04807]}},{"type":"Feature","properties":{"name":"Pierre-a-feu","appellation":"Châteauneuf-du-Pape","classification":"lieu_dit","overlap":82.2},"geometry":{"type":"Point","coordinates":[4.80649,44.05355]}},{"type":"Feature","properties":{"name":"Le-limas","appellation":"Châteauneuf-du-Pape","classification":"lieu_dit","overlap":75.7},"geometry":{"type":"Point","coordinates":[4.81155,44.05225]}},{"type":"Feature","properties":{"name":"La-croze","appellation":"Châteauneuf-du-Pape","classification":"lieu_dit","overlap":71.7},"geometry":{"type":"Point","coordinates":[4.80242,44.05771]}},{"type":"Feature","properties":{"name":"Barbe-d'asne","appellation":"Châteauneuf-du-Pape","classification":"lieu_dit","overlap":95.6},"geometry":{"type":"Point","coordinates":[4.81033,44.05734]}},{"type":"Feature","properties":{"name":"Le-lac","appellation":"Châteauneuf-du-Pape","classification":"lieu_dit","overlap":96.7},"geometry":{"type":"Point","coordinates":[4.81961,44.05595]}},{"type":"Feature","properties":{"name":"La-cerise","appellation":"Châteauneuf-du-Pape","classification":"lieu_dit","overlap":93.5},"geometry":{"type":"Point","coordinates":[4.82612,44.05533]}},{"type":"Feature","properties":{"name":"Combes-d'arnaval","appellation":"Châteauneuf-du-Pape","classification":"lieu_dit","overlap":61.7},"geometry":{"type":"Point","coordinates":[4.79743,44.0722]}},{"type":"Feature","properties":{"name":"Beau-renard-nord","appellation":"Châteauneuf-du-Pape","classification":"lieu_dit","overlap":98.2},"geometry":{"type":"Point","coordinates":[4.80112,44.07465]}},{"type":"Feature","properties":{"name":"Combes-masques-nord","appellation":"Châteauneuf-du-Pape","classification":"lieu_dit","overlap":72.6},"geometry":{"type":"Point","coordinates":[4.79798,44.06644]}},{"type":"Feature","properties":{"name":"Colombis","appellation":"Châteauneuf-du-Pape","classification":"lieu_dit","overlap":91.8},"geometry":{"type":"Point","coordinates":[4.80769,44.06072]}},{"type":"Feature","properties":{"name":"Beau-renard-sud","appellation":"Châteauneuf-du-Pape","classification":"lieu_dit","overlap":97.2},"geometry":{"type":"Point","coordinates":[4.80797,44.06619]}},{"type":"Feature","properties":{"name":"Combes-masques-sud","appellation":"Châteauneuf-du-Pape","classification":"lieu_dit","overlap":99.7},"geometry":{"type":"Point","coordinates":[4.80429,44.06435]}},{"type":"Feature","properties":{"name":"Marcoux","appellation":"Châteauneuf-du-Pape","classification":"lieu_dit","overlap":82.1},"geometry":{"type":"Point","coordinates":[4.83288,44.05816]}},{"type":"Feature","properties":{"name":"Les-bosquets","appellation":"Châteauneuf-du-Pape","classification":"lieu_dit","overlap":95.2},"geometry":{"type":"Point","coordinates":[4.83218,44.05914]}},{"type":"Feature","properties":{"name":"Le-clos","appellation":"Châteauneuf-du-Pape","classification":"lieu_dit","overlap":92.7},"geometry":{"type":"Point","coordinates":[4.83386,44.05428]}},{"type":"Feature","properties":{"name":"Le-village","appellation":"Châteauneuf-du-Pape","classification":"lieu_dit","overlap":78.8},"geometry":{"type":"Point","coordinates":[4.82999,44.05734]}},{"type":"Feature","properties":{"name":"Saint-theodoric","appellation":"Châteauneuf-du-Pape","classification":"lieu_dit","overlap":77.4},"geometry":{"type":"Point","coordinates":[4.83371,44.05609]}},{"type":"Feature","properties":{"name":"Parans","appellation":"Châteauneuf-du-Pape","classification":"lieu_dit","overlap":95.8},"geometry":{"type":"Point","coordinates":[4.83086,44.05517]}},{"type":"Feature","properties":{"name":"Puits-neuf","appellation":"Châteauneuf-du-Pape","classification":"lieu_dit","overlap":87.3},"geometry":{"type":"Point","coordinates":[4.83407,44.05723]}},{"type":"Feature","properties":{"name":"Garon","appellation":"Condrieu","classification":"lieu_dit","overlap":23.6},"geometry":{"type":"Point","coordinates":[4.76561,45.46519]}},{"type":"Feature","properties":{"name":"Maladiere","appellation":"Condrieu","classification":"lieu_dit","overlap":7.8},"geometry":{"type":"Point","coordinates":[4.7551,45.45844]}},{"type":"Feature","properties":{"name":"Vernon","appellation":"Condrieu","classification":"lieu_dit","overlap":40.0},"geometry":{"type":"Point","coordinates":[4.75748,45.46086]}},{"type":"Feature","properties":{"name":"Sainte Agathe","appellation":"Condrieu","classification":"lieu_dit","overlap":39.5},"geometry":{"type":"Point","coordinates":[4.76149,45.46484]}},{"type":"Feature","properties":{"name":"Mirebaudy","appellation":"Condrieu","classification":"lieu_dit","overlap":6.1},"geometry":{"type":"Point","coordinates":[4.75392,45.46319]}},{"type":"Feature","properties":{"name":"Chery","appellation":"Condrieu","classification":"lieu_dit","overlap":97.4},"geometry":{"type":"Point","coordinates":[4.75325,45.4601]}},{"type":"Feature","properties":{"name":"La Caille","appellation":"Condrieu","classification":"lieu_dit","overlap":58.4},"geometry":{"type":"Point","coordinates":[4.75861,45.46395]}},{"type":"Feature","properties":{"name":"Lamberte","appellation":"Condrieu","classification":"lieu_dit","overlap":71.8},"geometry":{"type":"Point","coordinates":[4.76292,45.46319]}},{"type":"Feature","properties":{"name":"Cote Bonnette","appellation":"Condrieu","classification":"lieu_dit","overlap":65.2},"geometry":{"type":"Point","coordinates":[4.76292,45.47009]}},{"type":"Feature","properties":{"name":"Corbery","appellation":"Condrieu","classification":"lieu_dit","overlap":45.8},"geometry":{"type":"Point","coordinates":[4.75696,45.47392]}},{"type":"Feature","properties":{"name":"La Roncharde","appellation":"Condrieu","classification":"lieu_dit","overlap":86.5},"geometry":{"type":"Point","coordinates":[4.76645,45.46929]}},{"type":"Feature","properties":{"name":"Marmouzin","appellation":"Condrieu","classification":"lieu_dit","overlap":73.3},"geometry":{"type":"Point","coordinates":[4.76366,45.47166]}},{"type":"Feature","properties":{"name":"Bassenon","appellation":"Condrieu","classification":"lieu_dit","overlap":10.6},"geometry":{"type":"Point","coordinates":[4.77206,45.4705]}},{"type":"Feature","properties":{"name":"Cote Chatillon","appellation":"Condrieu","classification":"lieu_dit","overlap":47.1},"geometry":{"type":"Point","coordinates":[4.76906,45.4691]}},{"type":"Feature","properties":{"name":"La Garde","appellation":"Saint-Joseph","classification":"lieu_dit","overlap":35.1},"geometry":{"type":"Point","coordinates":[4.80616,45.06418]}},{"type":"Feature","properties":{"name":"Bonneveau","appellation":"Saint-Joseph","classification":"lieu_dit","overlap":46.8},"geometry":{"type":"Point","coordinates":[4.80115,45.0558]}},{"type":"Feature","properties":{"name":"Chabot","appellation":"Saint-Joseph","classification":"lieu_dit","overlap":68.0},"geometry":{"type":"Point","coordinates":[4.80396,45.0585]}},{"type":"Feature","properties":{"name":"L' Arbre","appellation":"Saint-Joseph","classification":"lieu_dit","overlap":14.9},"geometry":{"type":"Point","coordinates":[4.80091,45.06043]}},{"type":"Feature","properties":{"name":"Biguaire","appellation":"Saint-Joseph","classification":"lieu_dit","overlap":5.4},"geometry":{"type":"Point","coordinates":[4.80413,45.0612]}},{"type":"Feature","properties":{"name":"Barthelet","appellation":"Saint-Joseph","classification":"lieu_dit","overlap":17.3},"geometry":{"type":"Point","coordinates":[4.80925,45.06507]}},{"type":"Feature","properties":{"name":"Saint - Just","appellation":"Saint-Joseph","classification":"lieu_dit","overlap":9.5},"geometry":{"type":"Point","coordinates":[4.81208,45.06578]}},{"type":"Feature","properties":{"name":"Andeol","appellation":"Saint-Joseph","classification":"lieu_dit","overlap":28.3},"geometry":{"type":"Point","coordinates":[4.80719,45.06349]}},{"type":"Feature","properties":{"name":"Geai","appellation":"Saint-Joseph","classification":"lieu_dit","overlap":36.6},"geometry":{"type":"Point","coordinates":[4.80717,45.05829]}},{"type":"Feature","properties":{"name":"Chapon","appellation":"Saint-Joseph","classification":"lieu_dit","overlap":49.4},"geometry":{"type":"Point","coordinates":[4.82875,45.0648]}},{"type":"Feature","properties":{"name":"Cote Chaude","appellation":"Saint-Joseph","classification":"lieu_dit","overlap":10.7},"geometry":{"type":"Point","coordinates":[4.82148,45.06961]}},{"type":"Feature","properties":{"name":"Rossignol","appellation":"Saint-Joseph","classification":"lieu_dit","overlap":28.7},"geometry":{"type":"Point","coordinates":[4.8282,45.0621]}},{"type":"Feature","properties":{"name":"Le Clos","appellation":"Saint-Joseph","classification":"lieu_dit","overlap":67.8},"geometry":{"type":"Point","coordinates":[4.83069,45.06001]}},{"type":"Feature","properties":{"name":"St Jacques","appellation":"Saint-Joseph","classification":"lieu_dit","overlap":96.4},"geometry":{"type":"Point","coordinates":[4.82629,45.06737]}},{"type":"Feature","properties":{"name":"La Terrasse","appellation":"Saint-Joseph","classification":"lieu_dit","overlap":35.0},"geometry":{"type":"Point","coordinates":[4.81933,45.06941]}},{"type":"Feature","properties":{"name":"Petit Val","appellation":"Saint-Joseph","classification":"lieu_dit","overlap":12.1},"geometry":{"type":"Point","coordinates":[4.81778,45.06882]}},{"type":"Feature","properties":{"name":"La Sauva","appellation":"Saint-Joseph","classification":"lieu_dit","overlap":29.4},"geometry":{"type":"Point","coordinates":[4.83427,45.05666]}},{"type":"Feature","properties":{"name":"Rivoires","appellation":"Saint-Joseph","classification":"lieu_dit","overlap":53.2},"geometry":{"type":"Point","coordinates":[4.83123,45.04734]}},{"type":"Feature","properties":{"name":"Devalla","appellation":"Saint-Joseph","classification":"lieu_dit","overlap":36.0},"geometry":{"type":"Point","coordinates":[4.8328,45.04385]}},{"type":"Feature","properties":{"name":"Ile Roche","appellation":"Saint-Joseph","classification":"lieu_dit","overlap":55.0},"geometry":{"type":"Point","coordinates":[4.83064,45.04517]}},{"type":"Feature","properties":{"name":"Les Oliviers","appellation":"Saint-Joseph","classification":"lieu_dit","overlap":70.9},"geometry":{"type":"Point","coordinates":[4.82618,45.04477]}},{"type":"Feature","properties":{"name":"La Dardouille","appellation":"Saint-Joseph","classification":"lieu_dit","overlap":64.0},"geometry":{"type":"Point","coordinates":[4.82191,45.04426]}},{"type":"Feature","properties":{"name":"Les Champs - Sud","appellation":"Saint-Joseph","classification":"lieu_dit","overlap":24.7},"geometry":{"type":"Point","coordinates":[4.82072,45.0461]}},{"type":"Feature","properties":{"name":"Les Opateyres","appellation":"Saint-Joseph","classification":"lieu_dit","overlap":56.8},"geometry":{"type":"Point","coordinates":[4.8244,45.04626]}},{"type":"Feature","properties":{"name":"Javignas","appellation":"Saint-Joseph","classification":"lieu_dit","overlap":82.0},"geometry":{"type":"Point","coordinates":[4.82788,45.05565]}},{"type":"Feature","properties":{"name":"Saint - Joseph","appellation":"Saint-Joseph","classification":"lieu_dit","overlap":88.9},"geometry":{"type":"Point","coordinates":[4.8259,45.04933]}},{"type":"Feature","properties":{"name":"Petite Pierre","appellation":"Saint-Joseph","classification":"lieu_dit","overlap":74.6},"geometry":{"type":"Point","coordinates":[4.8264,45.06094]}},{"type":"Feature","properties":{"name":"Pierre","appellation":"Saint-Joseph","classification":"lieu_dit","overlap":21.1},"geometry":{"type":"Point","coordinates":[4.81578,45.05623]}},{"type":"Feature","properties":{"name":"Les Vignes","appellation":"Saint-Joseph","classification":"lieu_dit","overlap":70.8},"geometry":{"type":"Point","coordinates":[4.81945,45.05508]}},{"type":"Feature","properties":{"name":"Dalicieux","appellation":"Saint-Joseph","classification":"lieu_dit","overlap":92.3},"geometry":{"type":"Point","coordinates":[4.82107,45.05272]}},{"type":"Feature","properties":{"name":"La Croix de Peygros","appellation":"Saint-Joseph","classification":"lieu_dit","overlap":97.1},"geometry":{"type":"Point","coordinates":[4.82384,45.05352]}},{"type":"Feature","properties":{"name":"Cotes des Rivoires","appellation":"Saint-Joseph","classification":"lieu_dit","overlap":71.0},"geometry":{"type":"Point","coordinates":[4.82797,45.05184]}},{"type":"Feature","properties":{"name":"Poinard","appellation":"Saint-Joseph","classification":"lieu_dit","overlap":93.7},"geometry":{"type":"Point","coordinates":[4.82636,45.05899]}},{"type":"Feature","properties":{"name":"Petits Champs","appellation":"Saint-Joseph","classification":"lieu_dit","overlap":24.0},"geometry":{"type":"Point","coordinates":[4.81255,45.0495]}},{"type":"Feature","properties":{"name":"Les Champs Nord","appellation":"Saint-Joseph","classification":"lieu_dit","overlap":55.1},"geometry":{"type":"Point","coordinates":[4.82103,45.05003]}},{"type":"Feature","properties":{"name":"Cotes des Champs","appellation":"Saint-Joseph","classification":"lieu_dit","overlap":59.3},"geometry":{"type":"Point","coordinates":[4.81744,45.04965]}},{"type":"Feature","properties":{"name":"Les Plots","appellation":"Crozes-Hermitage","classification":"lieu_dit","overlap":47.9},"geometry":{"type":"Point","coordinates":[4.89188,45.08947]}},{"type":"Feature","properties":{"name":"Combe Fraiche","appellation":"Crozes-Hermitage","classification":"lieu_dit","overlap":12.5},"geometry":{"type":"Point","coordinates":[4.89044,45.09453]}},{"type":"Feature","properties":{"name":"Creux Bruchon","appellation":"Crozes-Hermitage","classification":"lieu_dit","overlap":49.8},"geometry":{"type":"Point","coordinates":[4.89052,45.09332]}},{"type":"Feature","properties":{"name":"Les Perouses","appellation":"Crozes-Hermitage","classification":"lieu_dit","overlap":46.6},"geometry":{"type":"Point","coordinates":[4.89524,45.0896]}},{"type":"Feature","properties":{"name":"Blanche Laine","appellation":"Crozes-Hermitage","classification":"lieu_dit","overlap":7.3},"geometry":{"type":"Point","coordinates":[4.86812,45.07274]}},{"type":"Feature","properties":{"name":"La Burge","appellation":"Crozes-Hermitage","classification":"lieu_dit","overlap":56.4},"geometry":{"type":"Point","coordinates":[4.86889,45.07131]}},{"type":"Feature","properties":{"name":"Les Creux","appellation":"Crozes-Hermitage","classification":"lieu_dit","overlap":56.1},"geometry":{"type":"Point","coordinates":[4.8834,45.07675]}},{"type":"Feature","properties":{"name":"Veaugrand","appellation":"Crozes-Hermitage","classification":"lieu_dit","overlap":22.0},"geometry":{"type":"Point","coordinates":[4.91289,45.08362]}},{"type":"Feature","properties":{"name":"L'Oule","appellation":"Crozes-Hermitage","classification":"lieu_dit","overlap":27.1},"geometry":{"type":"Point","coordinates":[4.91247,45.0871]}},{"type":"Feature","properties":{"name":"Les Pierrelles","appellation":"Crozes-Hermitage","classification":"lieu_dit","overlap":41.7},"geometry":{"type":"Point","coordinates":[4.91328,45.0777]}},{"type":"Feature","properties":{"name":"Firmy","appellation":"Crozes-Hermitage","classification":"lieu_dit","overlap":23.3},"geometry":{"type":"Point","coordinates":[4.90877,45.08044]}},{"type":"Feature","properties":{"name":"Vivat","appellation":"Crozes-Hermitage","classification":"lieu_dit","overlap":64.7},"geometry":{"type":"Point","coordinates":[4.90044,45.07336]}},{"type":"Feature","properties":{"name":"Champ du Mas","appellation":"Crozes-Hermitage","classification":"lieu_dit","overlap":13.8},"geometry":{"type":"Point","coordinates":[4.90702,45.08125]}},{"type":"Feature","properties":{"name":"Bois du Fourmat","appellation":"Crozes-Hermitage","classification":"lieu_dit","overlap":57.0},"geometry":{"type":"Point","coordinates":[4.91667,45.08377]}},{"type":"Feature","properties":{"name":"Le Perou","appellation":"Crozes-Hermitage","classification":"lieu_dit","overlap":36.5},"geometry":{"type":"Point","coordinates":[4.89371,45.07418]}},{"type":"Feature","properties":{"name":"Les Combes","appellation":"Crozes-Hermitage","classification":"lieu_dit","overlap":24.4},"geometry":{"type":"Point","coordinates":[4.89589,45.08387]}},{"type":"Feature","properties":{"name":"Les Gerles","appellation":"Crozes-Hermitage","classification":"lieu_dit","overlap":18.3},"geometry":{"type":"Point","coordinates":[4.90088,45.08254]}},{"type":"Feature","properties":{"name":"Les Plots Ouest","appellation":"Crozes-Hermitage","classification":"lieu_dit","overlap":31.3},"geometry":{"type":"Point","coordinates":[4.89546,45.08163]}},{"type":"Feature","properties":{"name":"Les Taillas","appellation":"Crozes-Hermitage","classification":"lieu_dit","overlap":31.1},"geometry":{"type":"Point","coordinates":[4.90947,45.09146]}},{"type":"Feature","properties":{"name":"Maison Vielle","appellation":"Crozes-Hermitage","classification":"lieu_dit","overlap":77.8},"geometry":{"type":"Point","coordinates":[4.8974,45.08248]}},{"type":"Feature","properties":{"name":"Les Bois","appellation":"Crozes-Hermitage","classification":"lieu_dit","overlap":12.3},"geometry":{"type":"Point","coordinates":[4.90148,45.08485]}},{"type":"Feature","properties":{"name":"Creux Charbonnier","appellation":"Crozes-Hermitage","classification":"lieu_dit","overlap":14.2},"geometry":{"type":"Point","coordinates":[4.90479,45.09412]}},{"type":"Feature","properties":{"name":"Les Perousca","appellation":"Crozes-Hermitage","classification":"lieu_dit","overlap":85.6},"geometry":{"type":"Point","coordinates":[4.89716,45.08816]}},{"type":"Feature","properties":{"name":"Les Pends","appellation":"Crozes-Hermitage","classification":"lieu_dit","overlap":97.7},"geometry":{"type":"Point","coordinates":[4.90201,45.06731]}},{"type":"Feature","properties":{"name":"Les Blaches","appellation":"Crozes-Hermitage","classification":"lieu_dit","overlap":42.3},"geometry":{"type":"Point","coordinates":[4.90975,45.06573]}},{"type":"Feature","properties":{"name":"Champ Morel","appellation":"Crozes-Hermitage","classification":"lieu_dit","overlap":63.0},"geometry":{"type":"Point","coordinates":[4.90903,45.06888]}},{"type":"Feature","properties":{"name":"Pique Lauzun","appellation":"Crozes-Hermitage","classification":"lieu_dit","overlap":86.2},"geometry":{"type":"Point","coordinates":[4.89805,45.07562]}},{"type":"Feature","properties":{"name":"Les Revissieres","appellation":"Crozes-Hermitage","classification":"lieu_dit","overlap":92.6},"geometry":{"type":"Point","coordinates":[4.90039,45.06191]}},{"type":"Feature","properties":{"name":"Les Deves","appellation":"Crozes-Hermitage","classification":"lieu_dit","overlap":41.3},"geometry":{"type":"Point","coordinates":[4.89808,45.06807]}},{"type":"Feature","properties":{"name":"Les Laupies","appellation":"Crozes-Hermitage","classification":"lieu_dit","overlap":48.1},"geometry":{"type":"Point","coordinates":[4.9004,45.06001]}},{"type":"Feature","properties":{"name":"Les Clots","appellation":"Crozes-Hermitage","classification":"lieu_dit","overlap":29.8},"geometry":{"type":"Point","coordinates":[4.89425,45.04983]}},{"type":"Feature","properties":{"name":"Champ Monico","appellation":"Crozes-Hermitage","classification":"lieu_dit","overlap":60.1},"geometry":{"type":"Point","coordinates":[4.89683,45.0532]}},{"type":"Feature","properties":{"name":"Les Briouds","appellation":"Crozes-Hermitage","classification":"lieu_dit","overlap":42.7},"geometry":{"type":"Point","coordinates":[4.89436,45.05421]}},{"type":"Feature","properties":{"name":"Champ Pailherey","appellation":"Crozes-Hermitage","classification":"lieu_dit","overlap":35.2},"geometry":{"type":"Point","coordinates":[4.89745,45.0566]}},{"type":"Feature","properties":{"name":"Le Sabot","appellation":"Crozes-Hermitage","classification":"lieu_dit","overlap":100.0},"geometry":{"type":"Point","coordinates":[4.89516,45.05651]}},{"type":"Feature","properties":{"name":"Les Machonnieres","appellation":"Crozes-Hermitage","classification":"lieu_dit","overlap":98.4},"geometry":{"type":"Point","coordinates":[4.90498,45.06858]}},{"type":"Feature","properties":{"name":"La Rode","appellation":"Crozes-Hermitage","classification":"lieu_dit","overlap":98.6},"geometry":{"type":"Point","coordinates":[4.90078,45.07055]}},{"type":"Feature","properties":{"name":"La Croix","appellation":"Crozes-Hermitage","classification":"lieu_dit","overlap":10.7},"geometry":{"type":"Point","coordinates":[4.8924,45.06629]}},{"type":"Feature","properties":{"name":"Le Grand Curtil","appellation":"Crozes-Hermitage","classification":"lieu_dit","overlap":98.9},"geometry":{"type":"Point","coordinates":[4.89377,45.06224]}},{"type":"Feature","properties":{"name":"La Grace","appellation":"Crozes-Hermitage","classification":"lieu_dit","overlap":98.8},"geometry":{"type":"Point","coordinates":[4.89442,45.06407]}},{"type":"Feature","properties":{"name":"Les Chassis-Nord","appellation":"Crozes-Hermitage","classification":"lieu_dit","overlap":97.7},"geometry":{"type":"Point","coordinates":[4.88656,45.0578]}},{"type":"Feature","properties":{"name":"Gaubert","appellation":"Crozes-Hermitage","classification":"lieu_dit","overlap":97.5},"geometry":{"type":"Point","coordinates":[4.88587,45.06454]}},{"type":"Feature","properties":{"name":"Les Roussettes","appellation":"Crozes-Hermitage","classification":"lieu_dit","overlap":97.7},"geometry":{"type":"Point","coordinates":[4.8892,45.06309]}},{"type":"Feature","properties":{"name":"La Grange-Est","appellation":"Crozes-Hermitage","classification":"lieu_dit","overlap":99.1},"geometry":{"type":"Point","coordinates":[4.88517,45.06147]}},{"type":"Feature","properties":{"name":"Serre Borde","appellation":"Crozes-Hermitage","classification":"lieu_dit","overlap":98.9},"geometry":{"type":"Point","coordinates":[4.8935,45.0592]}},{"type":"Feature","properties":{"name":"La Blache","appellation":"Crozes-Hermitage","classification":"lieu_dit","overlap":98.0},"geometry":{"type":"Point","coordinates":[4.89128,45.05481]}},{"type":"Feature","properties":{"name":"Conflans-nord","appellation":"Crozes-Hermitage","classification":"lieu_dit","overlap":97.7},"geometry":{"type":"Point","coordinates":[4.88641,45.04511]}},{"type":"Feature","properties":{"name":"Les Chassis-Est","appellation":"Crozes-Hermitage","classification":"lieu_dit","overlap":91.6},"geometry":{"type":"Point","coordinates":[4.88081,45.05213]}},{"type":"Feature","properties":{"name":"Les Marelles","appellation":"Crozes-Hermitage","classification":"lieu_dit","overlap":53.9},"geometry":{"type":"Point","coordinates":[4.89067,45.04945]}},{"type":"Feature","properties":{"name":"Combe du Puy","appellation":"Crozes-Hermitage","classification":"lieu_dit","overlap":100.0},"geometry":{"type":"Point","coordinates":[4.88606,45.05043]}},{"type":"Feature","properties":{"name":"Serret","appellation":"Crozes-Hermitage","classification":"lieu_dit","overlap":98.6},"geometry":{"type":"Point","coordinates":[4.88687,45.05324]}},{"type":"Feature","properties":{"name":"Les Chassis-Sud","appellation":"Crozes-Hermitage","classification":"lieu_dit","overlap":91.0},"geometry":{"type":"Point","coordinates":[4.87603,45.04435]}},{"type":"Feature","properties":{"name":"Conflans-sud","appellation":"Crozes-Hermitage","classification":"lieu_dit","overlap":95.0},"geometry":{"type":"Point","coordinates":[4.8839,45.0408]}},{"type":"Feature","properties":{"name":"Les Chassis-Ouest","appellation":"Crozes-Hermitage","classification":"lieu_dit","overlap":91.8},"geometry":{"type":"Point","coordinates":[4.86734,45.04842]}},{"type":"Feature","properties":{"name":"Belle-vue","appellation":"Crozes-Hermitage","classification":"lieu_dit","overlap":100.0},"geometry":{"type":"Point","coordinates":[4.87128,45.05335]}},{"type":"Feature","properties":{"name":"La Mule Blanche","appellation":"Crozes-Hermitage","classification":"lieu_dit","overlap":46.8},"geometry":{"type":"Point","coordinates":[4.86835,45.05605]}},{"type":"Feature","properties":{"name":"Saint-jaimes","appellation":"Crozes-Hermitage","classification":"lieu_dit","overlap":28.1},"geometry":{"type":"Point","coordinates":[4.86199,45.05078]}},{"type":"Feature","properties":{"name":"Grapiat","appellation":"Crozes-Hermitage","classification":"lieu_dit","overlap":90.4},"geometry":{"type":"Point","coordinates":[4.87824,45.06045]}},{"type":"Feature","properties":{"name":"Les Malfondieres-Est","appellation":"Crozes-Hermitage","classification":"lieu_dit","overlap":76.4},"geometry":{"type":"Point","coordinates":[4.87587,45.06546]}},{"type":"Feature","properties":{"name":"Les Lots","appellation":"Crozes-Hermitage","classification":"lieu_dit","overlap":66.4},"geometry":{"type":"Point","coordinates":[4.87168,45.06006]}},{"type":"Feature","properties":{"name":"La Grange-Ouest","appellation":"Crozes-Hermitage","classification":"lieu_dit","overlap":95.4},"geometry":{"type":"Point","coordinates":[4.88183,45.06451]}},{"type":"Feature","properties":{"name":"Les Malfondieres-Ouest","appellation":"Crozes-Hermitage","classification":"lieu_dit","overlap":27.9},"geometry":{"type":"Point","coordinates":[4.87196,45.06914]}},{"type":"Feature","properties":{"name":"Mont Rousset","appellation":"Crozes-Hermitage","classification":"lieu_dit","overlap":69.9},"geometry":{"type":"Point","coordinates":[4.87709,45.06922]}},{"type":"Feature","properties":{"name":"Les Cros","appellation":"Crozes-Hermitage","classification":"lieu_dit","overlap":64.5},"geometry":{"type":"Point","coordinates":[4.8792,45.06911]}},{"type":"Feature","properties":{"name":"Les Remizieres","appellation":"Crozes-Hermitage","classification":"lieu_dit","overlap":52.8},"geometry":{"type":"Point","coordinates":[4.88219,45.06794]}},{"type":"Feature","properties":{"name":"Le Chenet-Nord","appellation":"Crozes-Hermitage","classification":"lieu_dit","overlap":49.2},"geometry":{"type":"Point","coordinates":[4.8785,45.07609]}},{"type":"Feature","properties":{"name":"Gueynier","appellation":"Crozes-Hermitage","classification":"lieu_dit","overlap":73.8},"geometry":{"type":"Point","coordinates":[4.87648,45.07335]}},{"type":"Feature","properties":{"name":"Corbeil","appellation":"Crozes-Hermitage","classification":"lieu_dit","overlap":25.9},"geometry":{"type":"Point","coordinates":[4.88651,45.07544]}},{"type":"Feature","properties":{"name":"Laye","appellation":"Crozes-Hermitage","classification":"lieu_dit","overlap":52.0},"geometry":{"type":"Point","coordinates":[4.89274,45.07209]}},{"type":"Feature","properties":{"name":"Le Chateau","appellation":"Crozes-Hermitage","classification":"lieu_dit","overlap":23.8},"geometry":{"type":"Point","coordinates":[4.8952,45.07496]}},{"type":"Feature","properties":{"name":"Les Chardieres","appellation":"Crozes-Hermitage","classification":"lieu_dit","overlap":18.7},"geometry":{"type":"Point","coordinates":[4.88863,45.07896]}},{"type":"Feature","properties":{"name":"Le Colombier","appellation":"Crozes-Hermitage","classification":"lieu_dit","overlap":9.3},"geometry":{"type":"Point","coordinates":[4.89129,45.07336]}},{"type":"Feature","properties":{"name":"Les Granges","appellation":"Crozes-Hermitage","classification":"lieu_dit","overlap":19.0},"geometry":{"type":"Point","coordinates":[4.88779,45.08477]}},{"type":"Feature","properties":{"name":"Les Arbouresses","appellation":"Crozes-Hermitage","classification":"lieu_dit","overlap":25.7},"geometry":{"type":"Point","coordinates":[4.88357,45.08032]}},{"type":"Feature","properties":{"name":"Charles","appellation":"Crozes-Hermitage","classification":"lieu_dit","overlap":29.4},"geometry":{"type":"Point","coordinates":[4.88949,45.08131]}},{"type":"Feature","properties":{"name":"La Tepe","appellation":"Crozes-Hermitage","classification":"lieu_dit","overlap":26.8},"geometry":{"type":"Point","coordinates":[4.88472,45.08199]}}]}